$GPGSV,4,2,13,09,82,211,39,16,04,082,,19,11,232,18,22,07,111,15*7F
$GPGSV,4,3,13,23,62,070,38,26,10,053,13,29,02,351,,30,01,187,*76
$GPGSV,4,4,13,33,28,205,31*44
$GLGSV,3,1,10,67,11,082,22,68,61,054,26,69,53,292,25,70,02,272,*64
$GLGSV,3,2,10,77,31,041,21,78,37,102,31,79,14,144,29,83,14,206,34*67
$GLGSV,3,3,10,84,44,262,32,85,27,328,25*69
$GNGLL,5159.89171,N,00422.40338,E,142259.00,A,D*7D
$GNRMC,142300.00,A,5159.89171,N,00422.40330,E,0.090,,071117,,,D*69
$GNVTG,,T,,M,0.090,N,0.167,K,D*31
$GNGGA,142300.00,5159.89171,N,00422.40330,E,2,12,0.89,6.2,M,46.0,M,,0000*4F
$GNGSA,A,3,09,23,06,02,07,03,26,,,,,,1.73,0.89,1.49*18
$GNGSA,A,3,69,84,78,77,83,85,79,,,,,,1.73,0.89,1.49*10
$GPGSV,4,1,13,02,34,305,31,03,27,107,30,06,60,257,38,07,25,169,32*78
$GPGSV,4,2,13,09,82,211,39,16,04,082,,19,11,232,,22,07,111,15*76
$GPGSV,4,3,13,23,62,070,38,26,10,053,13,29,02,351,,30,01,187,*76
$GPGSV,4,4,13,33,28,205,31*44
$GLGSV,3,1,10,67,11,082,22,68,61,054,27,69,53,292,24,70,02,272,*64
$GLGSV,3,2,10,77,31,041,21,78,37,102,30,79,14,144,29,83,14,206,34*66
$GLGSV,3,3,10,84,44,262,31,85,27,328,25*6A
$GNGLL,5159.89171,N,00422.40330,E,142300.00,A,D*78
$GNRMC,142301.00,A,5159.89173,N,00422.40321,E,0.066,,071117,,,D*63
$GNVTG,,T,,M,0.066,N,0.122,K,D*39
$GNGGA,142301.00,5159.89173,N,00422.40321,E,2,12,0.89,6.0,M,46.0,M,,0000*4E
$GNGSA,A,3,09,23,06,02,07,03,26,,,,,,1.73,0.89,1.49*18
$GNGSA,A,3,69,84,78,77,83,85,79,,,,,,1.73,0.89,1.49*10
$GPGSV,4,1,13,02,34,305,31,03,27,107,30,06,60,257,38,07,25,169,32*78
$GPGSV,4,2,13,09,82,211,39,16,04,082,,19,11,232,17,22,07,111,16*73
$GPGSV,4,3,13,23,62,070,38,26,10,053,13,29,02,351,,30,01,187,*76
$GPGSV,4,4,13,33,28,205,31*44
$GLGSV,3,1,10,67,11,082,22,68,61,054,26,69,53,292,22,70,02,272,*63
$GLGSV,3,2,10,77,31,041,22,78,37,102,30,79,14,144,29,83,14,206,34*65
$GLGSV,3,3,10,84,44,262,32,85,27,328,25*69
$GNGLL,5159.89173,N,00422.40321,E,142301.00,A,D*7B
$GNRMC,142302.00,A,5159.89179,N,00422.40313,E,0.092,,071117,,,D*60
$GNVTG,,T,,M,0.092,N,0.171,K,D*34
$GNGGA,142302.00,5159.89179,N,00422.40313,E,2,12,0.78,5.8,M,46.0,M,,0000*43
$GNGSA,A,3,09,23,06,02,07,03,,,,,,,1.53,0.78,1.32*1C
$GNGSA,A,3,69,84,78,77,83,85,79,,,,,,1.53,0.78,1.32*10
$GPGSV,4,1,13,02,34,305,30,03,27,107,31,06,60,257,37,07,25,169,33*76
$GPGSV,4,2,13,09,82,211,39,16,04,082,,19,11,232,18,22,07,111,16*7C
$GPGSV,4,3,13,23,62,070,38,26,10,053,13,29,02,351,,30,01,187,*76
$GPGSV,4,4,13,33,28,205,31*44
$GLGSV,3,1,10,67,11,082,22,68,61,054,27,69,53,292,21,70,02,272,*61
$GLGSV,3,2,10,77,31,041,21,78,37,102,29,79,14,144,29,83,14,206,34*6E
$GLGSV,3,3,10,84,44,262,32,85,27,328,25*69
$GNGLL,5159.89179,N,00422.40313,E,142302.00,A,D*73
$GNRMC,142303.00,A,5159.89182,N,00422.40301,E,0.104,,071117,,,D*68
$GNVTG,,T,,M,0.104,N,0.193,K,D*36
$GNGGA,142303.00,5159.89182,N,00422.40301,E,2,12,0.78,5.7,M,46.0,M,,0000*4A
$GNGSA,A,3,09,23,06,02,07,03,22,,,,,,1.53,0.78,1.32*1C
$GNGSA,A,3,69,84,78,77,83,85,79,,,,,,1.53,0.78,1.32*10
$GPGSV,4,1,13,02,34,305,30,03,27,107,31,06,60,257,38,07,25,169,34*7E
$GPGSV,4,2,13,09,82,211,39,16,04,082,,19,11,232,18,22,07,111,16*7C
$GPGSV,4,3,13,23,62,070,38,26,10,053,,29,02,351,,30,01,187,*74
$GPGSV,4,4,13,33,28,205,31*44
$GLGSV,3,1,10,67,11,082,21,68,61,054,27,69,53,292,20,70,02,272,*63
$GLGSV,3,2,10,77,31,041,21,78,37,102,29,79,14,144,29,83,14,206,33*69
$GLGSV,3,3,10,84,44,262,33,85,27,328,25*68
$GNGLL,5159.89182,N,00422.40301,E,142303.00,A,D*75
$GNRMC,142304.00,A,5159.89185,N,00422.40289,E,0.133,,071117,,,D*6D
$GNVTG,,T,,M,0.133,N,0.247,K,D*38
$GNGGA,142304.00,5159.89185,N,00422.40289,E,2,12,0.78,5.7,M,46.0,M,,0000*4B
$GNGSA,A,3,09,23,06,02,07,03,19,22,,,,,1.53,0.78,1.32*14
$GNGSA,A,3,69,84,78,77,83,85,79,,,,,,1.53,0.78,1.32*10
$GPGSV,4,1,13,02,34,305,30,03,27,107,31,06,60,257,37,07,25,169,34*71
$GPGSV,4,2,13,09,82,211,39,16,04,082,,19,11,232,18,22,07,111,16*7C
$GPGSV,4,3,13,23,62,070,38,26,10,053,17,29,02,351,,30,01,187,*72
$GPGSV,4,4,13,33,28,205,31*44
$GLGSV,3,1,10,67,11,082,21,68,61,054,27,69,53,292,21,70,02,272,*62
$GLGSV,3,2,10,77,31,041,21,78,37,102,28,79,14,144,30,83,14,206,33*60
$GLGSV,3,3,10,84,44,262,33,85,27,328,25*68
$GNGLL,5159.89185,N,00422.40289,E,142304.00,A,D*74
$GNRMC,142305.00,A,5159.89186,N,00422.40273,E,0.014,,071117,,,D*6E
$GNVTG,,T,,M,0.014,N,0.027,K,D*38
$GNGGA,142305.00,5159.89186,N,00422.40273,E,2,12,0.78,5.7,M,46.0,M,,0000*4C
$GNGSA,A,3,09,23,06,02,07,03,19,22,,,,,1.53,0.78,1.32*14
$GNGSA,A,3,69,84,78,77,83,85,79,,,,,,1.53,0.78,1.32*10
$GPGSV,4,1,13,02,34,305,30,03,27,107,31,06,60,257,38,07,25,169,34*7E
$GPGSV,4,2,13,09,82,211,39,16,04,082,,19,11,232,19,22,07,111,16*7D
$GPGSV,4,3,13,23,62,070,38,26,10,053,17,29,02,351,,30,01,187,*72
$GPGSV,4,4,13,33,28,205,31*44
$GLGSV,3,1,10,67,11,082,21,68,61,054,27,69,53,292,23,70,02,272,*60
$GLGSV,3,2,10,77,31,041,21,78,37,102,28,79,14,144,30,83,14,206,34*67
$GLGSV,3,3,10,84,44,262,34,85,27,328,25*6F
$GNGLL,5159.89186,N,00422.40273,E,142305.00,A,D*73
$GNRMC,142306.00,A,5159.89189,N,00422.40260,E,0.047,,071117,,,D*66
$GNVTG,,T,,M,0.047,N,0.088,K,D*3B
$GNGGA,142306.00,5159.89189,N,00422.40260,E,2,12,0.78,5.6,M,46.0,M,,0000*43
$GNGSA,A,3,09,23,06,02,07,03,19,22,,,,,1.53,0.78,1.32*14
$GNGSA,A,3,69,84,78,77,83,85,79,,,,,,1.53,0.78,1.32*10
$GPGSV,4,1,13,02,34,305,30,03,27,107,31,06,60,257,37,07,25,169,34*71
$GPGSV,4,2,13,09,82,211,39,16,04,082,,19,11,232,19,22,07,111,15*7E
$GPGSV,4,3,13,23,62,070,38,26,10,053,17,29,02,351,,30,01,187,*72
$GPGSV,4,4,13,33,28,205,31*44
$GLGSV,3,1,10,67,11,082,20,68,61,054,27,69,53,292,24,70,02,272,*66
$GLGSV,3,2,10,77,31,041,21,78,37,102,28,79,14,144,30,83,14,206,33*60
$GLGSV,3,3,10,84,44,262,34,85,27,328,26*6C
$GNGLL,5159.89189,N,00422.40260,E,142306.00,A,D*7D
$GNRMC,142307.00,A,5159.89191,N,00422.40242,E,0.043,,071117,,,D*6A
$GNVTG,,T,,M,0.043,N,0.079,K,D*31
$GNGGA,142307.00,5159.89191,N,00422.40242,E,2,12,0.78,5.6,M,46.0,M,,0000*4B
$GNGSA,A,3,09,23,06,02,07,03,19,26,22,,,,1.53,0.78,1.32*10
$GNGSA,A,3,69,84,78,77,83,85,79,,,,,,1.53,0.78,1.32*10
$GPGSV,4,1,13,02,34,305,30,03,27,107,31,06,60,257,38,07,25,169,34*7E
$GPGSV,4,2,13,09,82,211,39,16,04,082,,19,11,232,19,22,07,111,13*78
$GPGSV,4,3,13,23,62,070,38,26,10,053,17,29,02,351,,30,01,187,*72
$GPGSV,4,4,13,33,28,205,31*44
$GLGSV,3,1,10,67,11,082,20,68,61,054,27,69,53,292,26,70,02,272,*64
$GLGSV,3,2,10,77,31,041,22,78,37,102,29,79,14,144,30,83,14,206,33*62
$GLGSV,3,3,10,84,44,262,34,85,27,328,26*6C
$GNGLL,5159.89191,N,00422.40242,E,142307.00,A,D*75
$GNRMC,142308.00,A,5159.89191,N,00422.40230,E,0.034,,071117,,,D*60
$GNVTG,,T,,M,0.034,N,0.063,K,D*3A
$GNGGA,142308.00,5159.89191,N,00422.40230,E,2,12,0.78,5.6,M,46.0,M,,0000*41
$GNGSA,A,3,09,23,06,02,07,03,19,26,22,,,,1.53,0.78,1.32*10
$GNGSA,A,3,69,84,78,77,83,85,79,,,,,,1.53,0.78,1.32*10
$GPGSV,4,1,13,02,34,305,31,03,27,107,31,06,60,257,37,07,25,169,34*70
$GPGSV,4,2,13,09,82,211,39,16,04,082,,19,11,232,20,22,07,111,14*75
$GPGSV,4,3,13,23,62,070,38,26,10,053,17,29,02,351,,30,01,187,*72
$GPGSV,4,4,13,33,28,205,31*44
$GLGSV,3,1,10,67,11,082,20,68,61,054,26,69,53,292,26,70,02,272,*65
$GLGSV,3,2,10,77,31,041,22,78,37,102,28,79,14,144,30,83,14,206,33*63
$GLGSV,3,3,10,84,44,262,34,85,27,328,26*6C
$GNGLL,5159.89191,N,00422.40230,E,142308.00,A,D*7F
$GNRMC,142309.00,A,5159.89193,N,00422.40219,E,0.088,,071117,,,D*6F
$GNVTG,,T,,M,0.088,N,0.164,K,D*3B
$GNGGA,142309.00,5159.89193,N,00422.40219,E,2,12,0.78,5.6,M,46.0,M,,0000*49
$GNGSA,A,3,09,23,06,02,07,03,19,26,22,,,,1.53,0.78,1.32*10
$GNGSA,A,3,69,84,78,77,83,85,79,,,,,,1.53,0.78,1.32*10
$GPGSV,4,1,13,02,34,305,31,03,27,107,31,06,60,257,37,07,25,169,34*70
$GPGSV,4,2,13,09,82,211,39,16,04,082,,19,11,232,20,22,07,111,14*75
$GPGSV,4,3,13,23,62,070,38,26,10,053,16,29,02,351,,30,01,187,*73
$GPGSV,4,4,13,33,28,205,31*44
$GLGSV,3,1,10,67,11,082,20,68,61,054,26,69,53,292,27,70,02,272,*64
$GLGSV,3,2,10,77,31,041,21,78,37,102,28,79,14,144,31,83,14,206,33*61
$GLGSV,3,3,10,84,44,262,34,85,27,328,26*6C
$GNGLL,5159.89193,N,00422.40219,E,142309.00,A,D*77
$GNRMC,142310.00,A,5159.89193,N,00422.40207,E,0.053,,071117,,,D*6E
$GNVTG,,T,,M,0.053,N,0.099,K,D*3E
$GNGGA,142310.00,5159.89193,N,00422.40207,E,2,12,0.78,5.7,M,46.0,M,,0000*4F
$GNGSA,A,3,09,23,06,02,07,03,19,26,22,,,,1.53,0.78,1.32*10
$GNGSA,A,3,69,84,78,77,83,85,79,,,,,,1.53,0.78,1.32*10
$GPGSV,4,1,13,02,34,305,31,03,27,107,31,06,60,257,37,07,25,169,34*70
$GPGSV,4,2,13,09,82,211,39,16,04,082,,19,11,232,18,22,07,111,14*7E
$GPGSV,4,3,13,23,62,070,38,26,10,053,16,29,02,351,,30,01,187,*73
$GPGSV,4,4,13,33,28,205,31*44
$GLGSV,3,1,10,67,11,082,21,68,61,054,26,69,53,292,27,70,02,272,*65
$GLGSV,3,2,10,77,31,041,22,78,37,102,28,79,14,144,31,83,14,206,34*65
$GLGSV,3,3,10,84,44,262,34,85,27,328,26*6C
$GNGLL,5159.89193,N,00422.40207,E,142310.00,A,D*70
$GNRMC,142311.00,A,5159.89191,N,00422.40196,E,0.015,,071117,,,D*64
$GNVTG,,T,,M,0.015,N,0.029,K,D*37
$GNGGA,142311.00,5159.89191,N,00422.40196,E,2,12,0.78,5.8,M,46.0,M,,0000*48
$GNGSA,A,3,09,23,06,02,07,03,19,26,22,,,,1.53,0.78,1.32*10
$GNGSA,A,3,69,84,78,77,83,85,79,,,,,,1.53,0.78,1.32*10
$GPGSV,4,1,13,02,34,305,31,03,27,107,31,06,60,257,37,07,25,169,34*70
$GPGSV,4,2,13,09,82,211,39,16,04,082,,19,11,232,18,22,07,111,14*7E
$GPGSV,4,3,13,23,62,070,38,26,10,053,16,29,02,351,,30,01,187,*73
$GPGSV,4,4,13,33,28,205,31*44
$GLGSV,3,1,10,67,11,082,21,68,61,054,26,69,53,292,27,70,02,272,*65
$GLGSV,3,2,10,77,31,041,22,78,37,102,27,79,14,144,30,83,14,206,33*6C
$GLGSV,3,3,10,84,44,262,33,85,27,328,26*6B
$GNGLL,5159.89191,N,00422.40196,E,142311.00,A,D*78
$GNRMC,142312.00,A,5159.89194,N,00422.40190,E,0.028,,071117,,,D*6A
$GNVTG,,T,,M,0.028,N,0.052,K,D*35
$GNGGA,142312.00,5159.89194,N,00422.40190,E,2,12,0.78,5.7,M,46.0,M,,0000*47
$GNGSA,A,3,09,23,06,02,07,03,19,26,22,,,,1.53,0.78,1.32*10
$GNGSA,A,3,69,84,78,77,83,85,79,,,,,,1.53,0.78,1.32*10
$GPGSV,4,1,13,02,34,305,31,03,27,107,29,06,60,257,37,07,25,169,33*7E
$GPGSV,4,2,13,09,82,211,38,16,04,082,,19,11,232,18,22,07,111,15*7E
$GPGSV,4,3,13,23,62,070,37,26,10,053,16,29,02,351,,30,01,187,*7C
$GPGSV,4,4,13,33,28,205,31*44
$GLGSV,3,1,10,67,11,082,22,68,61,054,25,69,53,292,28,70,02,272,*6A
$GLGSV,3,2,10,77,31,041,22,78,37,102,27,79,14,144,30,83,14,206,33*6C
$GLGSV,3,3,10,84,44,262,32,85,27,328,26*6A
$GNGLL,5159.89194,N,00422.40190,E,142312.00,A,D*78
$GNRMC,142313.00,A,5159.89198,N,00422.40185,E,0.018,,071117,,,D*60
$GNVTG,,T,,M,0.018,N,0.033,K,D*31
$GNGGA,142313.00,5159.89198,N,00422.40185,E,2,12,0.78,5.6,M,46.0,M,,0000*4F
$GNGSA,A,3,09,23,06,02,07,03,19,26,22,,,,1.53,0.78,1.32*10
$GNGSA,A,3,69,84,78,77,83,85,79,,,,,,1.53,0.78,1.32*10
$GPGSV,4,1,13,02,34,305,31,03,27,107,29,06,60,257,37,07,25,169,33*7E
$GPGSV,4,2,13,09,82,211,38,16,04,082,,19,11,232,18,22,07,111,15*7E
$GPGSV,4,3,13,23,62,070,37,26,10,053,17,29,02,351,,30,01,187,*7D
$GPGSV,4,4,13,33,28,205,31*44
$GLGSV,3,1,10,67,11,082,22,68,61,054,26,69,53,292,28,70,02,272,*69
$GLGSV,3,2,10,77,31,041,21,78,37,102,27,79,14,144,30,83,14,206,33*6F
$GLGSV,3,3,10,84,44,262,32,85,27,328,26*6A
$GNGLL,5159.89198,N,00422.40185,E,142313.00,A,D*71
$GNRMC,142314.00,A,5159.89198,N,00422.40178,E,0.030,,071117,,,D*6F
$GNVTG,,T,,M,0.030,N,0.056,K,D*38
$GNGGA,142314.00,5159.89198,N,00422.40178,E,2,12,0.78,5.6,M,46.0,M,,0000*4A
$GNGSA,A,3,09,23,06,02,07,03,19,26,22,,,,1.53,0.78,1.32*10
$GNGSA,A,3,69,84,78,77,83,85,79,,,,,,1.53,0.78,1.32*10
$GPGSV,4,1,13,02,34,305,31,03,27,107,29,06,60,257,37,07,25,169,33*7E
$GPGSV,4,2,13,09,82,211,38,16,04,082,,19,11,232,17,22,07,111,16*72
$GPGSV,4,3,13,23,62,070,38,26,10,053,16,29,02,351,,30,01,187,*73
$GPGSV,4,4,13,33,28,205,31*44
$GLGSV,3,1,10,67,11,082,22,68,61,055,26,69,53,292,28,70,02,272,*68
$GLGSV,3,2,10,77,31,041,20,78,37,102,27,79,14,144,31,83,14,206,33*6F
$GLGSV,3,3,10,84,44,262,31,85,27,328,26*69
$GNGLL,5159.89198,N,00422.40178,E,142314.00,A,D*74
$GNRMC,142315.00,A,5159.89201,N,00422.40172,E,0.002,,071117,,,D*66
$GNVTG,,T,,M,0.002,N,0.004,K,D*3E
$GNGGA,142315.00,5159.89201,N,00422.40172,E,2,12,0.78,5.4,M,46.0,M,,0000*40
$GNGSA,A,3,09,23,06,02,07,03,26,22,,,,,1.53,0.78,1.32*18
$GNGSA,A,3,69,84,78,77,83,85,79,,,,,,1.53,0.78,1.32*10
$GPGSV,4,1,13,02,34,305,31,03,27,107,29,06,60,257,36,07,25,169,32*7E
$GPGSV,4,2,13,09,82,211,38,16,04,082,,19,11,232,15,22,07,111,15*73
$GPGSV,4,3,13,23,62,070,38,26,10,053,16,29,02,351,,30,01,187,*73
$GPGSV,4,4,13,33,28,205,31*44
$GLGSV,3,1,10,67,11,082,21,68,61,055,26,69,54,293,27,70,02,272,*62
$GLGSV,3,2,10,77,31,041,20,78,37,102,28,79,14,144,30,83,14,206,33*61
$GLGSV,3,3,10,84,44,262,31,85,27,328,26*69
$GNGLL,5159.89201,N,00422.40172,E,142315.00,A,D*7C
$GNRMC,142316.00,A,5159.89199,N,00422.40162,E,0.063,,071117,,,D*61
$GNVTG,,T,,M,0.063,N,0.116,K,D*3B
$GNGGA,142316.00,5159.89199,N,00422.40162,E,2,12,0.78,5.3,M,46.0,M,,0000*47
$GNGSA,A,3,09,23,06,02,07,03,19,26,22,,,,1.53,0.78,1.32*10
$GNGSA,A,3,69,84,78,77,83,85,79,,,,,,1.53,0.78,1.32*10
$GPGSV,4,1,13,02,34,305,31,03,27,107,29,06,60,257,37,07,25,169,31*7C
$GPGSV,4,2,13,09,82,211,38,16,04,082,,19,11,232,14,22,07,111,15*72
$GPGSV,4,3,13,23,62,070,38,26,10,053,14,29,02,351,,30,01,187,*71
$GPGSV,4,4,13,33,28,205,31*44
$GLGSV,3,1,10,67,11,082,21,68,61,055,26,69,54,293,27,70,02,272,*62
$GLGSV,3,2,10,77,31,041,20,78,37,102,28,79,14,144,31,83,14,206,33*60
$GLGSV,3,3,10,84,44,262,32,85,27,328,25*69
$GNGLL,5159.89199,N,00422.40162,E,142316.00,A,D*7C
$GNRMC,142317.00,A,5159.89198,N,00422.40153,E,0.027,,071117,,,D*63
$GNVTG,,T,,M,0.027,N,0.050,K,D*38
$GNGGA,142317.00,5159.89198,N,00422.40153,E,2,12,0.78,5.3,M,46.0,M,,0000*45
$GNGSA,A,3,09,23,06,02,07,03,26,22,,,,,1.53,0.78,1.32*18
$GNGSA,A,3,69,84,78,77,83,85,79,,,,,,1.53,0.78,1.32*10
$GPGSV,4,1,13,02,34,305,31,03,27,107,29,06,60,257,37,07,25,169,31*7C
$GPGSV,4,2,13,09,82,211,38,16,04,082,,19,11,232,13,22,07,111,14*74
$GPGSV,4,3,13,23,62,070,38,26,10,053,13,29,02,351,,30,01,187,*76
$GPGSV,4,4,13,33,28,205,31*44
$GLGSV,3,1,10,67,11,082,20,68,61,055,26,69,54,293,27,70,02,272,*63
$GLGSV,3,2,10,77,31,041,22,78,37,102,28,79,14,144,31,83,14,206,33*62
$GLGSV,3,3,10,84,44,262,32,85,27,328,26*6A
$GNGLL,5159.89198,N,00422.40153,E,142317.00,A,D*7E
$GNRMC,142318.00,A,5159.89197,N,00422.40146,E,0.043,,071117,,,D*65
$GNVTG,,T,,M,0.043,N,0.079,K,D*31
$GNGGA,142318.00,5159.89197,N,00422.40146,E,2,12,0.78,5.2,M,46.0,M,,0000*40
$GNGSA,A,3,09,23,06,02,07,03,26,22,,,,,1.53,0.78,1.32*18
$GNGSA,A,3,69,84,78,77,83,85,79,,,,,,1.53,0.78,1.32*10
$GPGSV,4,1,13,02,34,305,31,03,27,107,29,06,60,257,37,07,25,169,30*7D
$GPGSV,4,2,13,09,82,211,38,16,04,082,,19,11,232,14,22,07,111,14*73
$GPGSV,4,3,13,23,62,070,38,26,10,053,12,29,02,351,,30,01,187,*77
$GPGSV,4,4,13,33,28,205,31*44
$GLGSV,3,1,10,67,11,082,20,68,61,055,26,69,54,293,26,70,02,272,*62
$GLGSV,3,2,10,77,31,041,23,78,37,102,28,79,14,144,31,83,14,206,32*62
$GLGSV,3,3,10,84,44,262,33,85,27,328,25*68
$GNGLL,5159.89197,N,00422.40146,E,142318.00,A,D*7A
$GNRMC,142319.00,A,5159.89197,N,00422.40139,E,0.051,,071117,,,D*6F
$GNVTG,,T,,M,0.051,N,0.095,K,D*30
$GNGGA,142319.00,5159.89197,N,00422.40139,E,2,12,0.74,5.2,M,46.0,M,,0000*45
$GNGSA,A,3,09,23,06,02,07,03,19,26,22,,,,1.43,0.74,1.22*1C
$GNGSA,A,3,69,84,78,77,83,85,79,,,,,,1.43,0.74,1.22*1C
$GPGSV,4,1,13,02,34,305,31,03,27,107,29,06,60,257,37,07,25,169,30*7D
$GPGSV,4,2,13,09,82,211,38,16,04,082,,19,11,232,12,22,07,111,15*74
$GPGSV,4,3,13,23,62,070,37,26,10,053,14,29,02,351,,30,01,187,*7E
$GPGSV,4,4,13,33,28,205,31*44
$GLGSV,3,1,10,67,11,082,20,68,61,055,25,69,54,293,26,70,02,272,*61
$GLGSV,3,2,10,77,31,041,23,78,37,102,29,79,14,144,31,83,14,206,33*62
$GLGSV,3,3,10,84,44,262,33,85,27,328,25*68
$GNGLL,5159.89197,N,00422.40139,E,142319.00,A,D*73
$GNRMC,142320.00,A,5159.89195,N,00422.40132,E,0.021,,071117,,,D*6B
$GNVTG,,T,,M,0.021,N,0.038,K,D*30
$GNGGA,142320.00,5159.89195,N,00422.40132,E,2,12,0.78,5.3,M,46.0,M,,0000*4B
$GNGSA,A,3,09,23,06,02,07,03,26,22,,,,,1.53,0.78,1.32*18
$GNGSA,A,3,69,84,78,77,83,85,79,,,,,,1.53,0.78,1.32*10
$GPGSV,4,1,13,02,34,305,32,03,27,107,29,06,60,257,37,07,25,169,30*7E
$GPGSV,4,2,13,09,82,211,38,16,04,082,,19,11,232,,22,07,111,17*75
$GPGSV,4,3,13,23,62,070,37,26,10,053,14,29,02,351,,30,01,187,*7E
$GPGSV,4,4,13,33,28,205,31*44
$GLGSV,3,1,10,67,11,082,21,68,61,055,26,69,54,293,25,70,02,272,*60
$GLGSV,3,2,10,77,31,041,23,78,37,102,29,79,14,144,31,83,14,206,33*62
$GLGSV,3,3,10,84,44,262,33,85,27,328,25*68
$GNGLL,5159.89195,N,00422.40132,E,142320.00,A,D*70
$GNRMC,142321.00,A,5159.89193,N,00422.40127,E,0.053,,071117,,,D*6D
$GNVTG,,T,,M,0.053,N,0.098,K,D*3F
$GNGGA,142321.00,5159.89193,N,00422.40127,E,2,12,0.78,5.3,M,46.0,M,,0000*48
$GNGSA,A,3,09,23,06,02,07,03,26,22,,,,,1.53,0.78,1.32*18
$GNGSA,A,3,69,84,78,77,83,85,79,,,,,,1.53,0.78,1.32*10
$GPGSV,4,1,13,02,34,305,32,03,27,107,29,06,60,257,37,07,25,169,31*7F
$GPGSV,4,2,13,09,82,211,38,16,04,082,,19,11,232,,22,07,111,17*75
$GPGSV,4,3,13,23,62,070,37,26,10,053,14,29,02,351,,30,01,187,*7E
$GPGSV,4,4,13,33,28,205,31*44
$GLGSV,3,1,10,67,11,082,21,68,61,055,26,69,54,293,24,70,02,272,*61
$GLGSV,3,2,10,77,31,041,22,78,37,102,29,79,14,144,31,83,14,206,33*63
$GLGSV,3,3,10,84,44,262,34,85,27,328,25*6F
$GNGLL,5159.89193,N,00422.40127,E,142321.00,A,D*73
$GNRMC,142322.00,A,5159.89193,N,00422.40124,E,0.022,,071117,,,D*6B
$GNVTG,,T,,M,0.022,N,0.040,K,D*3C
$GNGGA,142322.00,5159.89193,N,00422.40124,E,2,12,0.78,5.4,M,46.0,M,,0000*4F
$GNGSA,A,3,09,23,06,02,07,03,26,22,,,,,1.53,0.78,1.32*18
$GNGSA,A,3,69,84,78,77,83,85,79,,,,,,1.53,0.78,1.32*10
$GPGSV,4,1,13,02,34,305,32,03,27,107,28,06,60,257,37,07,25,169,30*7F
$GPGSV,4,2,13,09,82,211,38,16,04,082,,19,11,232,,22,07,111,15*77
$GPGSV,4,3,13,23,62,070,37,26,10,053,13,29,02,351,,30,01,187,*79
$GPGSV,4,4,13,33,28,205,31*44
$GLGSV,3,1,10,67,11,082,21,68,61,055,26,69,54,293,23,70,02,272,*66
$GLGSV,3,2,10,77,31,041,22,78,37,102,29,79,14,144,31,83,14,206,33*63
$GLGSV,3,3,10,84,44,262,34,85,27,328,25*6F
$GNGLL,5159.89193,N,00422.40124,E,142322.00,A,D*73
$GNRMC,142323.00,A,5159.89192,N,00422.40120,E,0.039,,071117,,,D*65
$GNVTG,,T,,M,0.039,N,0.071,K,D*34
$GNGGA,142323.00,5159.89192,N,00422.40120,E,2,12,0.78,5.5,M,46.0,M,,0000*4A
$GNGSA,A,3,09,23,06,02,07,03,26,22,,,,,1.53,0.78,1.32*18
$GNGSA,A,3,69,84,78,77,83,85,79,,,,,,1.53,0.78,1.32*10
$GPGSV,4,1,13,02,34,305,32,03,27,107,28,06,60,257,37,07,25,169,31*7E
$GPGSV,4,2,13,09,82,211,38,16,04,082,,19,11,232,,22,07,111,13*71
$GPGSV,4,3,13,23,62,070,37,26,10,053,12,29,02,351,,30,01,187,*78
$GPGSV,4,4,13,33,28,205,31*44
$GLGSV,3,1,10,67,11,082,21,68,61,055,26,69,54,293,22,70,02,272,*67
$GLGSV,3,2,10,77,31,040,22,78,37,102,29,79,14,144,31,83,14,206,33*62
$GLGSV,3,3,10,84,44,262,34,85,27,328,25*6F
$GNGLL,5159.89192,N,00422.40120,E,142323.00,A,D*77
$GNRMC,142324.00,A,5159.89193,N,00422.40118,E,0.032,,071117,,,D*63
$GNVTG,,T,,M,0.032,N,0.058,K,D*34
$GNGGA,142324.00,5159.89193,N,00422.40118,E,2,12,0.78,5.5,M,46.0,M,,0000*47
$GNGSA,A,3,09,23,06,02,07,03,26,22,,,,,1.53,0.78,1.32*18
$GNGSA,A,3,69,84,78,77,83,85,79,,,,,,1.53,0.78,1.32*10
$GPGSV,4,1,13,02,34,305,32,03,27,107,28,06,60,257,37,07,25,169,30*7F
$GPGSV,4,2,13,09,82,211,38,16,04,082,,19,11,232,,22,07,111,14*76
$GPGSV,4,3,13,23,62,070,37,26,10,053,13,29,02,351,,30,01,187,*79
$GPGSV,4,4,13,33,28,205,31*44
$GLGSV,3,1,10,67,11,082,21,68,61,055,26,69,54,293,21,70,02,272,*64
$GLGSV,3,2,10,77,31,040,22,78,37,102,29,79,14,144,31,83,14,206,33*62
$GLGSV,3,3,10,84,44,262,34,85,27,328,24*6E
$GNGLL,5159.89193,N,00422.40118,E,142324.00,A,D*7A
$GNRMC,142325.00,A,5159.89192,N,00422.40116,E,0.030,,071117,,,D*6F
$GNVTG,,T,,M,0.030,N,0.055,K,D*3B
$GNGGA,142325.00,5159.89192,N,00422.40116,E,2,12,0.78,5.5,M,46.0,M,,0000*49
$GNGSA,A,3,09,23,06,02,07,03,26,22,,,,,1.53,0.78,1.32*18
$GNGSA,A,3,69,84,78,77,83,85,79,,,,,,1.53,0.78,1.32*10
$GPGSV,4,1,13,02,34,305,32,03,27,107,29,06,60,257,37,07,25,169,31*7F
$GPGSV,4,2,13,09,82,211,38,16,04,082,,19,11,232,,22,07,111,15*77
$GPGSV,4,3,13,23,62,070,37,26,10,053,13,29,02,351,,30,01,187,*79
$GPGSV,4,4,13,33,28,205,31*44
$GLGSV,3,1,10,67,11,082,20,68,61,055,26,69,54,293,22,70,02,272,*66
$GLGSV,3,2,10,77,31,040,23,78,37,102,29,79,14,144,31,83,14,206,33*63
$GLGSV,3,3,10,84,44,262,34,85,27,328,24*6E
$GNGLL,5159.89192,N,00422.40116,E,142325.00,A,D*74
$GNRMC,142326.00,A,5159.89186,N,00422.40119,E,0.203,,071117,,,D*64
$GNVTG,,T,,M,0.203,N,0.375,K,D*38
$GNGGA,142326.00,5159.89186,N,00422.40119,E,2,12,0.78,5.5,M,46.0,M,,0000*40
$GNGSA,A,3,09,23,06,02,07,03,26,22,,,,,1.53,0.78,1.32*18
$GNGSA,A,3,69,84,78,77,83,85,79,,,,,,1.53,0.78,1.32*10
$GPGSV,4,1,13,02,34,305,33,03,27,107,29,06,60,257,37,07,25,169,34*7B
$GPGSV,4,2,13,09,82,211,38,16,04,082,,19,11,232,,22,07,111,14*76
$GPGSV,4,3,13,23,62,070,38,26,10,053,12,29,02,351,,30,01,187,*77
$GPGSV,4,4,13,33,28,205,31*44
$GLGSV,3,1,10,67,11,082,20,68,61,055,26,69,54,293,23,70,02,272,*67
$GLGSV,3,2,10,77,31,040,22,78,37,102,30,79,14,144,31,83,14,206,33*6A
$GLGSV,3,3,10,84,44,262,33,85,27,328,24*69
$GNGLL,5159.89186,N,00422.40119,E,142326.00,A,D*7D
$GNRMC,142327.00,A,5159.89165,N,00422.40134,E,0.996,149.58,071117,,,D*7F
$GNVTG,149.58,T,,M,0.996,N,1.844,K,D*28
$GNGGA,142327.00,5159.89165,N,00422.40134,E,2,12,0.78,5.6,M,46.0,M,,0000*40
$GNGSA,A,3,09,23,06,02,07,03,26,22,,,,,1.53,0.78,1.32*18
$GNGSA,A,3,69,84,78,77,83,85,79,,,,,,1.53,0.78,1.32*10
$GPGSV,4,1,13,02,34,305,28,03,27,107,28,06,60,257,38,07,25,169,35*7E
$GPGSV,4,2,13,09,82,211,36,16,04,082,,19,11,232,18,22,07,111,14*71
$GPGSV,4,3,13,23,62,070,38,26,10,053,12,29,02,351,,30,01,187,*77
$GPGSV,4,4,13,33,28,205,31*44
$GLGSV,3,1,10,67,11,082,17,68,61,055,27,69,54,293,30,70,02,272,*60
$GLGSV,3,2,10,77,31,040,22,78,37,102,25,79,14,144,31,83,14,206,27*6B
$GLGSV,3,3,10,84,44,262,36,85,27,328,26*6E
$GNGLL,5159.89165,N,00422.40134,E,142327.00,A,D*7E
$GNRMC,142328.00,A,5159.89132,N,00422.40167,E,1.612,147.21,071117,,,D*76
$GNVTG,147.21,T,,M,1.612,N,2.986,K,D*26
$GNGGA,142328.00,5159.89132,N,00422.40167,E,2,12,0.79,5.5,M,46.0,M,,0000*49
$GNGSA,A,3,09,23,06,02,07,03,26,22,,,,,1.56,0.79,1.35*1B
$GNGSA,A,3,69,84,78,77,83,85,79,,,,,,1.56,0.79,1.35*13
$GPGSV,4,1,13,02,34,305,26,03,27,107,28,06,60,257,38,07,25,169,35*70
$GPGSV,4,2,13,09,82,211,36,16,04,082,,19,11,232,18,22,07,111,12*77
$GPGSV,4,3,13,23,62,070,37,26,10,053,13,29,02,351,,30,01,187,*79
$GPGSV,4,4,13,33,28,205,*46
$GLGSV,3,1,10,67,11,082,16,68,61,055,27,69,54,293,29,70,02,272,*69
$GLGSV,3,2,10,77,31,040,24,78,37,102,25,79,14,144,31,83,14,206,27*6D
$GLGSV,3,3,10,84,44,262,35,85,27,328,26*6D
$GNGLL,5159.89132,N,00422.40167,E,142328.00,A,D*75
$GNRMC,142329.00,A,5159.89090,N,00422.40195,E,1.408,152.02,071117,,,D*7F
$GNVTG,152.02,T,,M,1.408,N,2.608,K,D*23
$GNGGA,142329.00,5159.89090,N,00422.40195,E,2,12,0.78,5.6,M,46.0,M,,0000*4E
$GNGSA,A,3,09,23,06,02,07,03,26,22,,,,,1.53,0.78,1.32*18
$GNGSA,A,3,69,84,78,77,83,85,79,,,,,,1.53,0.78,1.32*10
$GPGSV,4,1,13,02,34,305,32,03,27,107,28,06,60,257,38,07,25,169,35*75
$GPGSV,4,2,13,09,82,211,35,16,04,082,,19,11,232,18,22,07,111,12*74
$GPGSV,4,3,13,23,62,070,37,26,10,053,13,29,02,351,,30,01,187,*79
$GPGSV,4,4,13,33,28,205,*46
$GLGSV,3,1,10,67,11,082,17,68,61,055,28,69,54,293,29,70,02,272,*67
$GLGSV,3,2,10,77,31,040,26,78,37,102,24,79,14,144,35,83,14,206,27*6A
$GLGSV,3,3,10,84,44,262,35,85,27,328,27*6C
$GNGLL,5159.89090,N,00422.40195,E,142329.00,A,D*70
$GNRMC,142330.00,A,5159.89055,N,00422.40209,E,1.060,148.62,071117,,,D*7F
$GNVTG,148.62,T,,M,1.060,N,1.963,K,D*25
$GNGGA,142330.00,5159.89055,N,00422.40209,E,2,12,0.78,5.9,M,46.0,M,,0000*46
$GNGSA,A,3,09,23,06,02,07,03,19,26,22,,,,1.53,0.78,1.32*10
$GNGSA,A,3,69,84,78,77,83,85,79,,,,,,1.53,0.78,1.32*10
$GPGSV,4,1,13,02,34,305,26,03,27,107,27,06,60,257,39,07,25,169,36*7D
$GPGSV,4,2,13,09,82,211,35,16,04,082,,19,11,232,26,22,07,111,14*7F
$GPGSV,4,3,13,23,62,070,37,26,10,053,15,29,02,351,,30,01,187,*7F
$GPGSV,4,4,13,33,28,205,*46
$GLGSV,3,1,10,67,11,082,17,68,61,055,28,69,54,293,29,70,02,272,*67
$GLGSV,3,2,10,77,31,040,28,78,37,102,27,79,14,144,34,83,14,206,25*64
$GLGSV,3,3,10,84,44,261,34,85,27,328,25*6C
$GNGLL,5159.89055,N,00422.40209,E,142330.00,A,D*77
$GNRMC,142331.00,A,5159.89024,N,00422.40245,E,1.104,142.84,071117,,,D*71
$GNVTG,142.84,T,,M,1.104,N,2.044,K,D*2B
$GNGGA,142331.00,5159.89024,N,00422.40245,E,2,12,0.78,5.9,M,46.0,M,,0000*49
$GNGSA,A,3,09,23,06,02,07,03,19,26,22,,,,1.53,0.78,1.32*10
$GNGSA,A,3,69,84,78,77,83,85,79,,,,,,1.53,0.78,1.32*10
$GPGSV,4,1,13,02,34,305,25,03,27,107,26,06,60,257,38,07,25,169,37*7F
$GPGSV,4,2,13,09,82,211,37,16,04,082,,19,11,232,20,22,07,111,14*7B
$GPGSV,4,3,13,23,62,070,35,26,10,053,14,29,02,351,,30,01,187,*7C
$GPGSV,4,4,13,33,28,205,*46
$GLGSV,3,1,10,67,11,082,17,68,61,055,28,69,54,293,31,70,02,272,*6E
$GLGSV,3,2,10,77,31,040,30,78,37,102,29,79,14,144,33,83,14,206,31*61
$GLGSV,3,3,10,84,44,261,34,85,27,327,25*63
$GNGLL,5159.89024,N,00422.40245,E,142331.00,A,D*78
$GNRMC,142332.00,A,5159.89004,N,00422.40302,E,1.599,125.50,071117,,,D*7A
$GNVTG,125.50,T,,M,1.599,N,2.962,K,D*2E
$GNGGA,142332.00,5159.89004,N,00422.40302,E,2,12,0.82,5.8,M,46.0,M,,0000*4E
$GNGSA,A,3,09,23,06,02,07,03,19,26,22,,,,1.59,0.82,1.36*1B
$GNGSA,A,3,69,84,78,77,83,85,79,,,,,,1.59,0.82,1.36*1B
$GPGSV,4,1,13,02,34,305,26,03,27,107,23,06,60,257,34,07,25,169,34*76
$GPGSV,4,2,13,09,82,211,35,16,04,082,,19,11,232,20,22,07,111,14*79
$GPGSV,4,3,13,23,62,070,34,26,10,053,14,29,02,351,,30,01,187,*7D
$GPGSV,4,4,13,33,28,205,*46
$GLGSV,3,1,10,67,11,082,16,68,61,055,27,69,54,293,21,70,02,272,*61
$GLGSV,3,2,10,77,31,040,27,78,37,102,18,79,14,144,27,83,14,206,24*64
$GLGSV,3,3,10,84,44,261,31,85,27,327,31*63
$GNGLL,5159.89004,N,00422.40302,E,142332.00,A,D*7B
$GNRMC,142333.00,A,5159.88991,N,00422.40381,E,1.776,117.44,071117,,,D*73
$GNVTG,117.44,T,,M,1.776,N,3.290,K,D*2E
$GNGGA,142333.00,5159.88991,N,00422.40381,E,2,12,0.78,5.8,M,46.0,M,,0000*45
$GNGSA,A,3,09,23,06,02,07,03,19,26,22,,,,1.53,0.78,1.32*10
$GNGSA,A,3,69,84,78,77,83,85,79,,,,,,1.53,0.78,1.32*10
$GPGSV,4,1,13,02,34,305,25,03,27,107,34,06,60,257,34,07,25,169,29*7F
$GPGSV,4,2,13,09,82,211,31,16,04,082,,19,11,232,19,22,07,111,13*70
$GPGSV,4,3,13,23,62,070,35,26,10,053,14,29,02,351,,30,01,187,*7C
$GPGSV,4,4,13,33,28,205,*46
$GLGSV,3,1,10,67,11,082,15,68,61,055,25,69,54,293,23,70,02,272,*62
$GLGSV,3,2,10,77,31,040,26,78,37,102,34,79,14,144,26,83,14,206,25*6B
$GLGSV,3,3,10,84,44,261,31,85,27,327,30*62
$GNGLL,5159.88991,N,00422.40381,E,142333.00,A,D*75
$GNRMC,142334.00,A,5159.88986,N,00422.40482,E,1.716,94.87,071117,,,D*45
$GNVTG,94.87,T,,M,1.716,N,3.179,K,D*19
$GNGGA,142334.00,5159.88986,N,00422.40482,E,2,12,0.78,5.2,M,46.0,M,,0000*4A
$GNGSA,A,3,09,23,06,02,07,03,19,26,22,,,,1.53,0.78,1.32*10
$GNGSA,A,3,69,84,78,77,83,85,79,,,,,,1.53,0.78,1.32*10
$GPGSV,4,1,13,02,34,305,25,03,27,107,34,06,60,257,34,07,25,169,37*70
$GPGSV,4,2,13,09,82,211,31,16,04,082,,19,11,232,19,22,07,111,13*70
$GPGSV,4,3,13,23,62,070,38,26,10,053,13,29,02,351,,30,01,187,*76
$GPGSV,4,4,13,33,28,205,*46
$GLGSV,3,1,10,67,11,082,15,68,61,055,25,69,54,293,24,70,02,272,*65
$GLGSV,3,2,10,77,31,040,26,78,37,102,36,79,14,144,31,83,14,206,26*6C
$GLGSV,3,3,10,84,44,261,28,85,27,327,29*62
$GNGLL,5159.88986,N,00422.40482,E,142334.00,A,D*70
$GNRMC,142335.00,A,5159.88996,N,00422.40584,E,1.774,89.50,071117,,,D*40
$GNVTG,89.50,T,,M,1.774,N,3.286,K,D*18
$GNGGA,142335.00,5159.88996,N,00422.40584,E,2,12,0.78,4.6,M,46.0,M,,0000*48
$GNGSA,A,3,09,23,06,02,07,03,19,26,22,,,,1.53,0.78,1.32*10
$GNGSA,A,3,69,84,78,77,83,85,79,,,,,,1.53,0.78,1.32*10
$GPGSV,4,1,13,02,34,305,27,03,27,107,30,06,60,257,35,07,25,169,35*75
$GPGSV,4,2,13,09,82,211,30,16,04,082,,19,11,232,18,22,07,111,11*72
$GPGSV,4,3,13,23,62,070,35,26,10,053,15,29,02,351,,30,01,187,*7D
$GPGSV,4,4,13,33,28,205,*46
$GLGSV,3,1,10,67,11,082,17,68,61,055,25,69,54,293,26,70,02,272,*65
$GLGSV,3,2,10,77,31,040,24,78,37,102,36,79,14,144,23,83,14,206,26*6D
$GLGSV,3,3,10,84,44,261,27,85,27,327,33*66
$GNGLL,5159.88996,N,00422.40584,E,142335.00,A,D*77
$GNRMC,142336.00,A,5159.89032,N,00422.40670,E,2.640,58.00,071117,,,D*41
$GNVTG,58.00,T,,M,2.640,N,4.890,K,D*1E
$GNGGA,142336.00,5159.89032,N,00422.40670,E,2,12,0.78,4.2,M,46.0,M,,0000*41
$GNGSA,A,3,09,23,06,02,07,03,19,26,22,,,,1.53,0.78,1.32*10
$GNGSA,A,3,69,84,78,77,83,85,79,,,,,,1.53,0.78,1.32*10
$GPGSV,4,1,13,02,34,305,27,03,27,107,23,06,60,257,34,07,25,169,37*74
$GPGSV,4,2,13,09,82,211,30,16,04,082,,19,11,232,20,22,07,111,13*7B
$GPGSV,4,3,13,23,62,070,35,26,10,053,14,29,02,351,,30,01,187,*7C
$GPGSV,4,4,13,33,28,205,*46
$GLGSV,3,1,10,67,11,082,17,68,61,055,26,69,54,293,33,70,02,272,*62
$GLGSV,3,2,10,77,31,040,22,78,37,102,28,79,14,144,34,83,14,206,27*63
$GLGSV,3,3,10,84,44,261,25,85,27,327,28*6E
$GNGLL,5159.89032,N,00422.40670,E,142336.00,A,D*7A
$GNRMC,142337.00,A,5159.89077,N,00422.40751,E,2.596,47.02,071117,,,D*47
$GNVTG,47.02,T,,M,2.596,N,4.807,K,D*14
$GNGGA,142337.00,5159.89077,N,00422.40751,E,2,12,0.78,4.3,M,46.0,M,,0000*42
$GNGSA,A,3,09,23,06,02,07,03,19,26,22,,,,1.53,0.78,1.32*10
$GNGSA,A,3,69,84,78,77,83,85,79,,,,,,1.53,0.78,1.32*10
$GPGSV,4,1,13,02,34,305,38,03,26,108,22,06,60,257,35,07,25,169,35*76
$GPGSV,4,2,13,09,82,211,31,16,04,082,,19,11,232,20,22,07,111,14*7D
$GPGSV,4,3,13,23,62,070,35,26,10,053,13,29,02,351,,30,01,187,*7B
$GPGSV,4,4,13,33,28,205,*46
$GLGSV,3,1,10,67,11,082,17,68,61,055,26,69,54,293,32,70,02,272,*63
$GLGSV,3,2,10,77,31,040,18,78,37,102,27,79,14,144,32,83,14,206,27*63
$GLGSV,3,3,10,84,44,261,26,85,27,327,27*62
$GNGLL,5159.89077,N,00422.40751,E,142337.00,A,D*78
$GNRMC,142338.00,A,5159.89152,N,00422.40796,E,3.051,32.63,071117,,,D*4F
$GNVTG,32.63,T,,M,3.051,N,5.650,K,D*13
$GNGGA,142338.00,5159.89152,N,00422.40796,E,2,12,0.78,3.9,M,46.0,M,,0000*4D
$GNGSA,A,3,09,23,06,02,07,03,19,22,,,,,1.53,0.78,1.32*14
$GNGSA,A,3,69,84,78,77,83,85,79,,,,,,1.53,0.78,1.32*10
$GPGSV,4,1,13,02,34,305,31,03,26,108,21,06,60,257,37,07,25,169,34*7F
$GPGSV,4,2,13,09,82,211,31,16,04,082,,19,11,232,19,22,07,111,13*70
$GPGSV,4,3,13,23,62,070,35,26,10,053,09,29,02,351,,30,01,187,*70
$GPGSV,4,4,13,33,28,205,*46
$GLGSV,3,1,10,67,11,082,16,68,61,055,23,69,54,293,31,70,02,272,*64
$GLGSV,3,2,10,77,31,040,14,78,37,102,26,79,14,144,25,83,14,206,26*69
$GLGSV,3,3,10,84,44,261,27,85,27,327,33*66
$GNGLL,5159.89152,N,00422.40796,E,142338.00,A,D*7A
$GNRMC,142339.00,A,5159.89231,N,00422.40808,E,2.539,21.15,071117,,,D*49
$GNVTG,21.15,T,,M,2.539,N,4.702,K,D*1D
$GNGGA,142339.00,5159.89231,N,00422.40808,E,2,12,0.74,3.5,M,46.0,M,,0000*42
$GNGSA,A,3,09,23,06,02,07,03,19,22,,,,,1.43,0.74,1.22*18
$GNGSA,A,3,69,84,78,77,83,85,79,,,,,,1.43,0.74,1.22*1C
$GPGSV,4,1,13,02,34,305,28,03,26,108,18,06,60,256,35,07,25,169,36*7C
$GPGSV,4,2,13,09,82,211,35,16,04,082,,19,11,232,17,22,07,111,10*79
$GPGSV,4,3,13,23,62,070,34,26,10,053,08,29,02,351,,30,01,187,*70
$GPGSV,4,4,13,33,28,205,*46
$GLGSV,3,1,10,67,11,082,16,68,61,055,25,69,54,293,28,70,02,272,*6A
$GLGSV,3,2,10,77,31,040,07,78,37,102,24,79,14,144,25,83,14,206,25*6A
$GLGSV,3,3,10,84,44,261,28,85,27,327,33*69
$GNGLL,5159.89231,N,00422.40808,E,142339.00,A,D*75
$GNRMC,142340.00,A,5159.89287,N,00422.40803,E,2.270,6.28,071117,,,D*70
$GNVTG,6.28,T,,M,2.270,N,4.204,K,D*2F
$GNGGA,142340.00,5159.89287,N,00422.40803,E,2,12,0.86,3.5,M,46.0,M,,0000*47
$GNGSA,A,3,09,23,06,02,07,03,19,26,22,,,,1.55,0.86,1.29*1D
$GNGSA,A,3,69,84,78,77,83,85,79,,,,,,1.55,0.86,1.29*1D
$GPGSV,4,1,13,02,34,305,37,03,26,108,16,06,60,256,37,07,25,169,32*7A
$GPGSV,4,2,13,09,82,211,38,16,04,082,,19,11,232,16,22,07,111,10*75
$GPGSV,4,3,13,23,62,070,31,26,10,053,09,29,02,351,,30,01,187,*74
$GPGSV,4,4,13,33,28,205,*46
$GLGSV,3,1,10,67,11,082,16,68,61,055,23,69,54,293,32,70,02,272,*67
$GLGSV,3,2,10,77,31,040,11,78,37,102,22,79,14,144,22,83,14,206,26*6F
$GLGSV,3,3,10,84,44,261,26,85,27,327,31*65
$GNGLL,5159.89287,N,00422.40803,E,142340.00,A,D*7D
$GNRMC,142341.00,A,5159.89303,N,00422.40776,E,0.291,,071117,,,D*6E
$GNVTG,,T,,M,0.291,N,0.538,K,D*3C
$GNGGA,142341.00,5159.89303,N,00422.40776,E,2,12,0.74,3.3,M,46.0,M,,0000*4D
$GNGSA,A,3,09,23,06,02,07,03,19,26,,,,,1.43,0.74,1.22*1C
$GNGSA,A,3,69,84,78,77,83,85,79,,,,,,1.43,0.74,1.22*1C
$GPGSV,4,1,13,02,34,305,29,03,26,108,17,06,60,256,38,07,25,169,25*7D
$GPGSV,4,2,13,09,82,211,37,16,04,082,,19,11,232,18,22,07,111,08*7D
$GPGSV,4,3,13,23,62,070,39,26,10,053,12,29,02,351,,30,01,187,*76
$GPGSV,4,4,13,33,28,205,*46
$GLGSV,3,1,10,67,11,082,17,68,61,055,20,69,54,293,27,70,02,272,*61
$GLGSV,3,2,10,77,31,040,13,78,37,102,19,79,14,144,19,83,14,206,25*6E
$GLGSV,3,3,10,84,44,261,26,85,27,327,23*66
$GNGLL,5159.89303,N,00422.40776,E,142341.00,A,D*7C
$GNRMC,142342.00,A,5159.89315,N,00422.40763,E,0.512,,071117,,,D*62
$GNVTG,,T,,M,0.512,N,0.949,K,D*3A
$GNGGA,142342.00,5159.89315,N,00422.40763,E,2,12,0.74,3.3,M,46.0,M,,0000*4D
$GNGSA,A,3,09,23,06,02,07,03,19,26,,,,,1.43,0.74,1.22*1C
$GNGSA,A,3,69,84,78,77,83,85,79,,,,,,1.43,0.74,1.22*1C
$GPGSV,4,1,13,02,34,305,21,03,26,108,19,06,60,256,36,07,25,169,24*74
$GPGSV,4,2,13,09,82,210,37,16,04,082,,19,11,232,18,22,07,111,07*73
$GPGSV,4,3,13,23,62,070,39,26,10,053,14,29,02,351,,30,01,187,*70
$GPGSV,4,4,13,33,28,205,*46
$GLGSV,3,1,10,67,11,082,16,68,61,055,22,69,54,293,28,70,02,272,*6D
$GLGSV,3,2,10,77,31,040,10,78,37,102,20,79,14,144,21,83,14,206,30*68
$GLGSV,3,3,10,84,44,261,26,85,27,327,21*64
$GNGLL,5159.89315,N,00422.40763,E,142342.00,A,D*7C
$GNRMC,142343.00,A,5159.89318,N,00422.40776,E,0.138,,071117,,,D*66
$GNVTG,,T,,M,0.138,N,0.255,K,D*30
$GNGGA,142343.00,5159.89318,N,00422.40776,E,2,12,0.86,3.5,M,46.0,M,,0000*4E
$GNGSA,A,3,09,23,06,02,07,03,19,,,,,,1.55,0.86,1.29*19
$GNGSA,A,3,69,84,78,77,83,85,79,,,,,,1.55,0.86,1.29*1D
$GPGSV,4,1,13,02,34,305,20,03,26,108,20,06,60,256,36,07,25,169,24*7F
$GPGSV,4,2,13,09,82,210,37,16,04,082,,19,11,232,16,22,07,111,07*7D
$GPGSV,4,3,13,23,62,070,39,26,10,053,15,29,02,351,,30,01,187,*71
$GPGSV,4,4,13,33,28,205,*46
$GLGSV,3,1,10,67,11,082,16,68,61,055,23,69,54,293,29,70,02,272,*6D
$GLGSV,3,2,10,77,31,040,12,78,37,102,21,79,14,144,21,83,14,206,30*6B
$GLGSV,3,3,10,84,44,261,32,85,27,327,19*6A
$GNGLL,5159.89318,N,00422.40776,E,142343.00,A,D*74
$GNRMC,142344.00,A,5159.89290,N,00422.40758,E,1.301,327.27,071117,,,D*78
$GNVTG,327.27,T,,M,1.301,N,2.409,K,D*29
$GNGGA,142344.00,5159.89290,N,00422.40758,E,2,12,0.74,3.4,M,46.0,M,,0000*48
$GNGSA,A,3,09,23,06,02,07,03,19,,,,,,1.43,0.74,1.22*18
$GNGSA,A,3,69,84,78,77,83,85,79,,,,,,1.43,0.74,1.22*1C
$GPGSV,4,1,13,02,34,305,28,03,26,108,19,06,60,256,37,07,25,169,22*7A
$GPGSV,4,2,13,09,82,210,39,16,04,082,,19,11,232,20,22,07,111,07*76
$GPGSV,4,3,13,23,62,070,39,26,10,053,15,29,02,351,,30,01,187,*71
$GPGSV,4,4,13,33,28,205,*46
$GLGSV,3,1,10,67,11,082,16,68,61,055,24,69,54,293,33,70,02,272,*61
$GLGSV,3,2,10,77,31,040,10,78,37,102,23,79,14,144,21,83,14,206,31*6A
$GLGSV,3,3,10,84,44,261,32,85,27,327,29*69
$GNGLL,5159.89290,N,00422.40758,E,142344.00,A,D*7E
$GNRMC,142345.00,A,5159.89252,N,00422.40758,E,1.486,224.50,071117,,,D*7D
$GNVTG,224.50,T,,M,1.486,N,2.751,K,D*2D
$GNGGA,142345.00,5159.89252,N,00422.40758,E,2,12,0.86,4.1,M,46.0,M,,0000*48
$GNGSA,A,3,09,23,06,02,07,03,19,,,,,,1.55,0.86,1.29*19
$GNGSA,A,3,69,84,78,83,85,79,,,,,,,1.55,0.86,1.29*1D
$GPGSV,4,1,13,02,34,305,32,03,26,108,17,06,60,256,37,07,25,169,29*74
$GPGSV,4,2,13,09,82,210,40,16,04,082,,19,11,232,22,22,07,111,07*7A
$GPGSV,4,3,13,23,62,070,34,26,10,053,15,29,02,351,,30,01,187,*7C
$GPGSV,4,4,13,33,28,205,*46
$GLGSV,3,1,10,67,11,082,15,68,61,055,26,69,54,293,32,70,02,272,*61
$GLGSV,3,2,10,77,31,040,07,78,37,102,26,79,14,144,22,83,14,206,31*6A
$GLGSV,3,3,10,84,44,261,30,85,27,327,33*60
$GNGLL,5159.89252,N,00422.40758,E,142345.00,A,D*71
$GNRMC,142346.00,A,5159.89239,N,00422.40752,E,0.582,,071117,,,D*62
$GNVTG,,T,,M,0.582,N,1.078,K,D*39
$GNGGA,142346.00,5159.89239,N,00422.40752,E,2,12,0.86,4.5,M,46.0,M,,0000*48
$GNGSA,A,3,09,23,06,02,07,03,19,,,,,,1.55,0.86,1.29*19
$GNGSA,A,3,69,84,78,77,83,85,79,,,,,,1.55,0.86,1.29*1D
$GPGSV,4,1,13,02,34,305,34,03,26,108,15,06,60,256,37,07,25,169,33*7B
$GPGSV,4,2,13,09,82,210,39,16,04,082,,19,11,232,24,22,07,111,07*72
$GPGSV,4,3,13,23,62,070,33,26,10,053,15,29,02,351,,30,01,187,*7B
$GPGSV,4,4,13,33,28,205,*46
$GLGSV,3,1,10,67,11,082,18,68,61,055,27,69,54,293,33,70,02,272,*6C
$GLGSV,3,2,10,77,31,040,10,78,37,102,32,79,14,144,21,83,14,206,27*6D
$GLGSV,3,3,10,84,44,261,35,85,27,327,34*62
$GNGLL,5159.89239,N,00422.40752,E,142346.00,A,D*75
$GNRMC,142347.00,A,5159.89244,N,00422.40749,E,0.163,,071117,,,D*68
$GNVTG,,T,,M,0.163,N,0.303,K,D*3C
$GNGGA,142347.00,5159.89244,N,00422.40749,E,2,12,0.74,4.1,M,46.0,M,,0000*40
$GNGSA,A,3,09,23,06,02,07,03,19,,,,,,1.43,0.74,1.22*18
$GNGSA,A,3,69,84,78,77,83,85,79,,,,,,1.43,0.74,1.22*1C
$GPGSV,4,1,13,02,34,305,31,03,26,108,13,06,60,256,39,07,25,169,31*74
$GPGSV,4,2,13,09,82,210,41,16,04,082,,19,11,232,25,22,07,111,07*7C
$GPGSV,4,3,13,23,62,070,35,26,10,053,15,29,02,351,,30,01,187,*7D
$GPGSV,4,4,13,33,28,205,*46
$GLGSV,3,1,10,67,11,082,21,68,61,055,28,69,54,293,31,70,02,272,*6B
$GLGSV,3,2,10,77,31,040,12,78,37,102,31,79,14,144,20,83,14,206,26*6C
$GLGSV,3,3,10,84,44,261,28,85,27,327,36*6C
$GNGLL,5159.89244,N,00422.40749,E,142347.00,A,D*74
$GNRMC,142348.00,A,5159.89285,N,00422.40720,E,1.646,275.60,071117,,,D*7C
$GNVTG,275.60,T,,M,1.646,N,3.049,K,D*2B
$GNGGA,142348.00,5159.89285,N,00422.40720,E,2,12,0.74,4.1,M,46.0,M,,0000*4D
$GNGSA,A,3,09,23,06,02,07,03,19,,,,,,1.43,0.74,1.22*18
$GNGSA,A,3,69,84,78,77,83,85,79,,,,,,1.43,0.74,1.22*1C
$GPGSV,4,1,13,02,34,305,33,03,26,108,12,06,60,256,37,07,25,169,30*78
$GPGSV,4,2,13,09,82,210,41,16,04,082,,19,11,232,25,22,07,111,07*7C
$GPGSV,4,3,13,23,62,070,35,26,10,053,15,29,02,351,,30,01,187,*7D
$GPGSV,4,4,13,33,28,205,*46
$GLGSV,3,1,10,67,11,082,23,68,61,055,28,69,54,293,34,70,02,272,*6C
$GLGSV,3,2,10,77,31,040,14,78,37,102,31,79,14,144,20,83,14,206,24*68
$GLGSV,3,3,10,84,44,261,26,85,27,327,32*66
$GNGLL,5159.89285,N,00422.40720,E,142348.00,A,D*79
$GNRMC,142349.00,A,5159.89379,N,00422.40665,E,3.749,327.49,071117,,,D*7E
$GNVTG,327.49,T,,M,3.749,N,6.943,K,D*2C
$GNGGA,142349.00,5159.89379,N,00422.40665,E,2,12,0.74,3.7,M,46.0,M,,0000*4F
$GNGSA,A,3,09,23,06,02,07,03,19,26,,,,,1.43,0.74,1.22*1C
$GNGSA,A,3,69,84,78,77,83,85,79,,,,,,1.43,0.74,1.22*1C
$GPGSV,4,1,13,02,34,305,29,03,26,108,14,06,60,256,37,07,25,169,29*7D
$GPGSV,4,2,13,09,82,210,41,16,04,081,,19,11,232,26,22,07,111,07*7C
$GPGSV,4,3,13,23,62,070,36,26,10,053,15,29,02,351,,30,01,187,*7E
$GPGSV,4,4,13,33,28,205,*46
$GLGSV,3,1,10,67,11,082,22,68,61,055,28,69,54,293,33,70,02,272,*6A
$GLGSV,3,2,10,77,31,040,13,78,37,102,31,79,14,144,20,83,14,206,25*6E
$GLGSV,3,3,10,84,44,261,24,85,27,327,35*63
$GNGLL,5159.89379,N,00422.40665,E,142349.00,A,D*7A
$GNRMC,142350.00,A,5159.89488,N,00422.40556,E,3.848,333.71,071117,,,D*7C
$GNVTG,333.71,T,,M,3.848,N,7.126,K,D*26
$GNGGA,142350.00,5159.89488,N,00422.40556,E,2,12,0.67,3.4,M,46.0,M,,0000*4C
$GNGSA,A,3,09,23,06,02,07,03,19,26,,,,,1.25,0.67,1.06*18
$GNGSA,A,3,69,84,78,77,83,85,79,,,,,,1.25,0.67,1.06*18
$GPGSV,4,1,13,02,34,305,38,03,26,108,18,06,60,256,39,07,25,169,30*77
$GPGSV,4,2,13,09,82,210,40,16,04,081,,19,11,232,25,22,07,111,07*7E
$GPGSV,4,3,13,23,62,070,37,26,10,053,15,29,02,351,,30,01,187,*7F
$GPGSV,4,4,13,33,28,205,*46
$GLGSV,3,1,10,67,11,082,21,68,61,055,25,69,54,293,29,70,02,272,*6F
$GLGSV,3,2,10,77,31,040,09,78,37,102,30,79,14,144,20,83,14,206,32*62
$GLGSV,3,3,10,84,44,261,26,85,27,327,35*61
$GNGLL,5159.89488,N,00422.40556,E,142350.00,A,D*78
$GNRMC,142351.00,A,5159.89588,N,00422.40461,E,3.979,334.18,071117,,,D*72
$GNVTG,334.18,T,,M,3.979,N,7.369,K,D*24
$GNGGA,142351.00,5159.89588,N,00422.40461,E,2,12,0.67,3.1,M,46.0,M,,0000*4C
$GNGSA,A,3,09,23,06,02,07,03,19,26,,,,,1.25,0.67,1.06*18
$GNGSA,A,3,69,84,78,77,83,85,79,,,,,,1.25,0.67,1.06*18
$GPGSV,4,1,13,02,34,305,37,03,26,108,19,06,60,256,39,07,25,169,34*7D
$GPGSV,4,2,13,09,82,210,37,16,04,081,,19,11,232,22,22,07,111,07*79
$GPGSV,4,3,13,23,62,070,37,26,10,053,15,29,02,351,,30,01,187,*7F
$GPGSV,4,4,13,33,28,205,*46
$GLGSV,3,1,10,67,11,082,19,68,61,055,22,69,54,293,28,70,02,272,*62
$GLGSV,3,2,10,77,31,040,09,78,37,102,24,79,14,144,21,83,14,206,34*60
$GLGSV,3,3,10,84,44,261,26,85,27,327,36*62
$GNGLL,5159.89588,N,00422.40461,E,142351.00,A,D*7D
$GNRMC,142352.00,A,5159.89707,N,00422.40359,E,4.463,332.69,071117,,,D*79
$GNVTG,332.69,T,,M,4.463,N,8.265,K,D*27
$GNGGA,142352.00,5159.89707,N,00422.40359,E,2,12,0.74,2.7,M,46.0,M,,0000*43
$GNGSA,A,3,09,23,06,02,07,03,19,26,,,,,1.43,0.74,1.22*1C
$GNGSA,A,3,69,84,78,77,83,85,79,,,,,,1.43,0.74,1.22*1C
$GPGSV,4,1,13,02,34,305,39,03,26,108,20,06,60,256,38,07,25,169,31*7D
$GPGSV,4,2,13,09,82,210,39,16,04,081,,19,10,232,19,22,07,111,07*7E
$GPGSV,4,3,13,23,62,070,37,26,10,053,15,29,02,351,,30,01,187,*7F
$GPGSV,4,4,13,33,28,205,*46
$GLGSV,3,1,10,67,11,082,18,68,61,055,21,69,54,293,28,70,02,272,*60
$GLGSV,3,2,10,77,31,040,10,78,37,102,29,79,14,144,22,83,14,206,30*62
$GLGSV,3,3,10,84,44,261,28,85,27,327,36*6C
$GNGLL,5159.89707,N,00422.40359,E,142352.00,A,D*77
$GNRMC,142353.00,A,5159.89811,N,00422.40248,E,4.621,327.11,071117,,,D*7E
$GNVTG,327.11,T,,M,4.621,N,8.557,K,D*2E
$GNGGA,142353.00,5159.89811,N,00422.40248,E,2,12,0.67,2.5,M,46.0,M,,0000*4B
$GNGSA,A,3,09,23,06,02,07,03,19,26,,,,,1.25,0.67,1.06*18
$GNGSA,A,3,69,84,78,77,83,85,79,,,,,,1.25,0.67,1.06*18
$GPGSV,4,1,13,02,34,305,32,03,26,108,20,06,60,256,36,07,25,169,31*78
$GPGSV,4,2,13,09,82,210,41,16,04,081,17,19,10,232,21,22,07,111,07*7C
$GPGSV,4,3,13,23,62,070,37,26,10,053,15,29,02,351,,30,01,187,*7F
$GPGSV,4,4,13,33,28,205,34*41
$GLGSV,3,1,10,67,11,082,17,68,61,055,21,69,54,293,32,70,02,272,*64
$GLGSV,3,2,10,77,31,040,10,78,37,102,33,79,14,144,26,83,14,206,29*65
$GLGSV,3,3,10,84,44,261,27,85,27,327,33*66
$GNGLL,5159.89811,N,00422.40248,E,142353.00,A,D*7F
$GNRMC,142354.00,A,5159.89888,N,00422.40093,E,4.364,315.74,071117,,,D*7B
$GNVTG,315.74,T,,M,4.364,N,8.081,K,D*26
$GNGGA,142354.00,5159.89888,N,00422.40093,E,2,12,0.67,2.4,M,46.0,M,,0000*49
$GNGSA,A,3,09,23,06,02,07,03,19,26,,,,,1.25,0.67,1.06*18
$GNGSA,A,3,69,84,78,77,83,85,79,,,,,,1.25,0.67,1.06*18
$GPGSV,4,1,13,02,34,305,36,03,26,108,21,06,60,256,36,07,25,169,31*7D
$GPGSV,4,2,13,09,82,210,42,16,04,081,15,19,10,232,20,22,07,111,07*7C
$GPGSV,4,3,13,23,62,070,31,26,10,053,15,29,02,351,,30,01,187,*79
$GPGSV,4,4,13,33,28,205,29*4D
$GLGSV,3,1,10,67,11,082,16,68,61,055,26,69,54,293,32,70,02,272,*62
$GLGSV,3,2,10,77,31,040,12,78,37,102,31,79,14,144,25,83,14,206,27*68
$GLGSV,3,3,10,84,44,261,27,85,27,327,34*61
$GNGLL,5159.89888,N,00422.40093,E,142354.00,A,D*7C
$GNRMC,142355.00,A,5159.89918,N,00422.39925,E,3.834,300.51,071117,,,D*72
$GNVTG,300.51,T,,M,3.834,N,7.101,K,D*2A
$GNGGA,142355.00,5159.89918,N,00422.39925,E,2,12,0.90,2.2,M,46.0,M,,0000*44
$GNGSA,A,3,09,23,06,02,07,03,19,26,,,,,1.65,0.90,1.38*19
$GNGSA,A,3,69,84,78,77,83,85,79,,,,,,1.65,0.90,1.38*19
$GPGSV,4,1,13,02,34,305,29,03,26,108,21,06,60,256,37,07,25,169,35*76
$GPGSV,4,2,13,09,82,210,40,16,04,081,12,19,10,232,20,22,07,111,07*79
$GPGSV,4,3,13,23,62,070,34,26,10,053,15,29,02,351,,30,01,187,*7C
$GPGSV,4,4,13,33,28,205,27*43
$GLGSV,3,1,10,67,11,082,14,68,61,055,24,69,54,293,31,70,02,272,*61
$GLGSV,3,2,10,77,31,040,07,78,37,102,25,79,14,144,25,83,14,206,26*68
$GLGSV,3,3,10,84,44,261,27,85,27,327,33*66
$GNGLL,5159.89918,N,00422.39925,E,142355.00,A,D*7F
$GNRMC,142356.00,A,5159.89919,N,00422.39736,E,4.388,274.96,071117,,,D*7E
$GNVTG,274.96,T,,M,4.388,N,8.127,K,D*23
$GNGGA,142356.00,5159.89919,N,00422.39736,E,2,12,0.71,2.3,M,46.0,M,,0000*44
$GNGSA,A,3,09,23,06,02,07,03,19,26,,,,,1.37,0.71,1.17*1C
$GNGSA,A,3,69,84,78,77,83,85,79,,,,,,1.37,0.71,1.17*1C
$GPGSV,4,1,13,02,34,305,37,03,26,108,23,06,60,256,37,07,25,169,35*7B
$GPGSV,4,2,13,09,82,210,39,16,04,081,11,19,10,232,19,22,07,111,07*7E
$GPGSV,4,3,13,23,61,070,35,26,10,053,15,29,02,351,,30,01,187,*7E
$GPGSV,4,4,13,33,28,205,28*4C
$GLGSV,3,1,10,67,11,082,,68,61,055,22,69,54,293,30,70,02,272,*63
$GLGSV,3,2,10,77,31,040,09,78,37,102,30,79,14,144,25,83,14,206,26*62
$GLGSV,3,3,10,84,44,261,33,85,27,327,33*63
$GNGLL,5159.89919,N,00422.39736,E,142356.00,A,D*71
$GNRMC,142357.00,A,5159.89899,N,00422.39532,E,4.899,261.67,071117,,,D*71
$GNVTG,261.67,T,,M,4.899,N,9.073,K,D*23
$GNGGA,142357.00,5159.89899,N,00422.39532,E,2,12,0.71,2.3,M,46.0,M,,0000*4A
$GNGSA,A,3,09,23,06,02,07,03,19,26,,,,,1.37,0.71,1.17*1C
$GNGSA,A,3,69,84,78,77,83,85,79,,,,,,1.37,0.71,1.17*1C
$GPGSV,4,1,13,02,34,305,30,03,26,108,31,06,60,256,35,07,25,169,34*7C
$GPGSV,4,2,13,09,82,210,38,16,04,081,12,19,10,232,16,22,07,111,07*73
$GPGSV,4,3,13,23,61,070,31,26,10,053,15,29,02,351,,30,01,187,*7A
$GPGSV,4,4,13,33,28,205,28*4C
$GLGSV,3,1,10,67,11,082,,68,61,055,18,69,54,293,30,70,02,272,*6A
$GLGSV,3,2,10,77,31,040,11,78,37,102,30,79,14,144,27,83,14,206,27*68
$GLGSV,3,3,10,84,44,261,31,85,27,327,36*64
$GNGLL,5159.89899,N,00422.39532,E,142357.00,A,D*7F
$GNRMC,142358.00,A,5159.89864,N,00422.39319,E,5.383,258.26,071117,,,D*7D
$GNVTG,258.26,T,,M,5.383,N,9.969,K,D*2F
$GNGGA,142358.00,5159.89864,N,00422.39319,E,2,12,0.95,2.1,M,46.0,M,,0000*40
$GNGSA,A,3,09,23,06,02,07,03,,,,,,,1.73,0.95,1.45*1D
$GNGSA,A,3,69,84,78,77,83,85,79,,,,,,1.73,0.95,1.45*11
$GPGSV,4,1,13,02,34,305,33,03,26,108,30,06,60,256,35,07,25,169,34*7E
$GPGSV,4,2,13,09,82,210,39,16,04,081,12,19,10,232,,22,07,111,*72
$GPGSV,4,3,13,23,61,070,32,26,10,053,,29,02,351,,30,01,187,*7D
$GPGSV,4,4,13,33,28,205,27*43
$GLGSV,3,1,10,67,11,082,,68,61,055,16,69,54,293,29,70,02,272,*6C
$GLGSV,3,2,10,77,31,040,09,78,37,102,34,79,14,144,25,83,14,206,27*67
$GLGSV,3,3,10,84,44,261,24,85,27,327,35*63
$GNGLL,5159.89864,N,00422.39319,E,142358.00,A,D*7D
$GNRMC,142359.00,A,5159.89813,N,00422.39102,E,5.269,253.14,071117,,,D*7B
$GNVTG,253.14,T,,M,5.269,N,9.758,K,D*2C
$GNGGA,142359.00,5159.89813,N,00422.39102,E,2,12,0.81,2.0,M,46.0,M,,0000*4D
$GNGSA,A,3,09,23,06,02,07,03,,,,,,,1.55,0.81,1.33*1D
$GNGSA,A,3,69,84,78,77,83,85,79,,,,,,1.55,0.81,1.33*11
$GPGSV,4,1,13,02,34,305,37,03,26,108,24,06,60,256,36,07,25,169,36*7E
$GPGSV,4,2,13,09,82,210,40,16,04,081,11,19,10,232,,22,07,111,*7F
$GPGSV,4,3,13,23,61,070,34,26,10,053,,29,02,351,,30,01,187,*7B
$GPGSV,4,4,13,33,28,205,*46
$GLGSV,3,1,10,67,11,082,,68,61,055,13,69,54,293,30,70,02,272,*61
$GLGSV,3,2,10,77,31,040,07,78,37,102,27,79,14,144,25,83,14,206,25*69
$GLGSV,3,3,10,84,44,261,23,85,27,327,32*63
$GNGLL,5159.89813,N,00422.39102,E,142359.00,A,D*74
$GNRMC,142400.00,A,5159.89748,N,00422.38881,E,5.444,250.14,071117,,,D*78
$GNVTG,250.14,T,,M,5.444,N,10.082,K,D*1E
$GNGGA,142400.00,5159.89748,N,00422.38881,E,2,12,0.78,1.8,M,46.0,M,,0000*49
$GNGSA,A,3,09,23,06,02,07,03,,,,,,,1.53,0.78,1.32*1C
$GNGSA,A,3,69,84,78,77,83,85,79,,,,,,1.53,0.78,1.32*10
$GPGSV,4,1,13,02,34,305,33,03,26,108,25,06,60,256,35,07,25,169,38*76
$GPGSV,4,2,13,09,82,210,40,16,04,081,12,19,10,232,,22,07,111,*7C
$GPGSV,4,3,13,23,61,070,34,26,10,053,,29,02,351,,30,01,187,*7B
$GPGSV,4,4,13,33,28,205,*46
$GLGSV,3,1,10,67,11,082,,68,61,055,12,69,54,293,28,70,02,272,*69
$GLGSV,3,2,10,77,31,040,10,78,37,102,18,79,14,144,24,83,14,206,24*63
$GLGSV,3,3,10,84,44,261,24,85,27,327,31*67
$GNGLL,5159.89748,N,00422.38881,E,142400.00,A,D*7D
$GNRMC,142401.00,A,5159.89688,N,00422.38646,E,5.657,249.72,071117,,,D*79
$GNVTG,249.72,T,,M,5.657,N,10.476,K,D*19
$GNGGA,142401.00,5159.89688,N,00422.38646,E,2,12,0.78,2.0,M,46.0,M,,0000*4B
$GNGSA,A,3,09,23,06,02,07,03,,,,,,,1.53,0.78,1.32*1C
$GNGSA,A,3,69,84,78,77,83,85,79,,,,,,1.53,0.78,1.32*10
$GPGSV,4,1,13,02,34,305,34,03,26,108,24,06,60,256,36,07,25,169,36*7D
$GPGSV,4,2,13,09,82,210,40,16,04,081,10,19,10,232,22,22,07,111,14*7B
$GPGSV,4,3,13,23,61,070,34,26,10,053,13,29,02,351,,30,01,187,*79
$GPGSV,4,4,13,33,28,205,*46
$GLGSV,3,1,10,67,11,082,,68,61,055,13,69,54,293,27,70,02,272,*67
$GLGSV,3,2,10,77,31,040,09,78,37,102,22,79,14,144,25,83,14,206,21*66
$GLGSV,3,3,10,84,44,261,23,85,27,327,24*64
$GNGLL,5159.89688,N,00422.38646,E,142401.00,A,D*74
$GNRMC,142402.00,A,5159.89653,N,00422.38399,E,5.469,255.60,071117,,,D*7A
$GNVTG,255.60,T,,M,5.469,N,10.129,K,D*17
$GNGGA,142402.00,5159.89653,N,00422.38399,E,2,12,0.91,1.8,M,46.0,M,,0000*45
$GNGSA,A,3,09,23,06,02,07,03,,,,,,,1.72,0.91,1.46*1B
$GNGSA,A,3,69,84,78,77,83,85,79,,,,,,1.72,0.91,1.46*17
$GPGSV,4,1,13,02,34,305,35,03,26,108,25,06,60,256,35,07,25,169,38*70
$GPGSV,4,2,13,09,82,210,40,16,04,081,09,19,10,232,20,22,07,111,14*71
$GPGSV,4,3,13,23,61,070,34,26,10,053,10,29,03,350,,30,01,187,*7A
$GPGSV,4,4,13,33,28,205,*46
$GLGSV,3,1,10,67,11,082,,68,61,055,13,69,54,293,28,70,02,272,*68
$GLGSV,3,2,10,77,31,040,09,78,37,102,23,79,14,144,26,83,14,206,19*6F
$GLGSV,3,3,10,84,44,261,22,85,27,327,35*65
$GNGLL,5159.89653,N,00422.38399,E,142402.00,A,D*76
$GNRMC,142403.00,A,5159.89648,N,00422.38154,E,5.473,261.51,071117,,,D*7C
$GNVTG,261.51,T,,M,5.473,N,10.136,K,D*17
$GNGGA,142403.00,5159.89648,N,00422.38154,E,2,12,0.91,1.8,M,46.0,M,,0000*4D
$GNGSA,A,3,09,23,06,02,07,03,,,,,,,1.72,0.91,1.46*1B
$GNGSA,A,3,69,84,78,77,85,79,,,,,,,1.72,0.91,1.46*1C
$GPGSV,4,1,13,02,34,305,24,03,26,108,32,06,60,256,34,07,25,169,28*76
$GPGSV,4,2,13,09,82,210,41,16,04,081,,19,10,232,17,22,07,111,14*7D
$GPGSV,4,3,13,23,61,070,32,26,10,053,09,29,03,350,,30,01,187,*74
$GPGSV,4,4,13,33,28,205,*46
$GLGSV,3,1,10,67,11,082,,68,61,055,14,69,54,293,28,70,02,272,*6F
$GLGSV,3,2,10,77,31,040,08,78,37,102,31,79,14,144,25,83,14,206,*66
$GLGSV,3,3,10,84,44,261,22,85,27,327,36*66
$GNGLL,5159.89648,N,00422.38154,E,142403.00,A,D*7E
$GNRMC,142404.00,A,5159.89685,N,00422.37925,E,5.426,280.43,071117,,,D*77
$GNVTG,280.43,T,,M,5.426,N,10.049,K,D*12
$GNGGA,142404.00,5159.89685,N,00422.37925,E,2,12,1.01,2.1,M,46.0,M,,0000*48
$GNGSA,A,3,09,23,06,02,07,03,,,,,,,1.80,1.01,1.49*11
$GNGSA,A,3,69,84,78,77,85,79,,,,,,,1.80,1.01,1.49*16
$GPGSV,4,1,13,02,34,305,29,03,26,108,32,06,60,256,37,07,25,169,33*72
$GPGSV,4,2,13,09,82,210,41,16,04,081,,19,10,232,16,22,07,111,14*7C
$GPGSV,4,3,13,23,61,070,35,26,10,053,08,29,03,350,,30,01,187,*72
$GPGSV,4,4,13,33,28,205,*46
$GLGSV,3,1,10,67,11,082,,68,61,055,19,69,54,293,29,70,02,272,*63
$GLGSV,3,2,10,77,31,040,08,78,37,102,31,79,14,144,26,83,14,206,19*6D
$GLGSV,3,3,10,84,44,261,30,85,27,327,33*60
$GNGLL,5159.89685,N,00422.37925,E,142404.00,A,D*79
$GNRMC,142405.00,A,5159.89763,N,00422.37690,E,5.785,296.62,071117,,,D*70
$GNVTG,296.62,T,,M,5.785,N,10.714,K,D*13
$GNGGA,142405.00,5159.89763,N,00422.37690,E,2,12,0.85,2.1,M,46.0,M,,0000*4C
$GNGSA,A,3,09,23,06,02,07,19,03,22,,,,,1.56,0.85,1.31*10
$GNGSA,A,3,69,84,78,77,85,79,,,,,,,1.56,0.85,1.31*1F
$GPGSV,4,1,13,02,34,305,28,03,26,108,27,06,60,256,40,07,25,169,36*72
$GPGSV,4,2,13,09,82,210,40,16,04,081,,19,10,232,16,22,07,111,14*7D
$GPGSV,4,3,13,23,61,070,36,26,10,053,08,29,03,350,,30,01,187,*71
$GPGSV,4,4,13,33,28,205,*46
$GLGSV,3,1,10,67,11,082,,68,61,055,24,69,54,293,27,70,02,272,*63
$GLGSV,3,2,10,77,31,040,08,78,37,102,25,79,14,144,31,83,14,206,*66
$GLGSV,3,3,10,84,44,261,29,85,27,327,29*63
$GNGLL,5159.89763,N,00422.37690,E,142405.00,A,D*70
$GNRMC,142406.00,A,5159.89893,N,00422.37514,E,6.166,312.26,071117,,,D*79
$GNVTG,312.26,T,,M,6.166,N,11.419,K,D*19
$GNGGA,142406.00,5159.89893,N,00422.37514,E,2,12,0.85,1.8,M,46.0,M,,0000*4A
$GNGSA,A,3,09,23,06,02,07,19,03,22,,,,,1.56,0.85,1.31*10
$GNGSA,A,3,69,84,78,77,85,79,,,,,,,1.56,0.85,1.31*1F
$GPGSV,4,1,13,02,34,305,29,03,26,108,26,06,60,256,36,07,25,169,28*7C
$GPGSV,4,2,13,09,82,210,40,16,04,081,,19,10,232,16,22,07,111,13*7A
$GPGSV,4,3,13,23,61,070,35,26,10,053,08,29,03,350,,30,01,187,*72
$GPGSV,4,4,13,33,28,205,*46
$GLGSV,3,1,10,67,11,082,,68,61,055,26,69,54,293,32,70,02,272,*65
$GLGSV,3,2,10,77,31,040,08,78,37,102,26,79,14,144,23,83,14,206,*66
$GLGSV,3,3,10,84,44,261,27,85,27,327,28*6C
$GNGLL,5159.89893,N,00422.37514,E,142406.00,A,D*7C
$GNRMC,142407.00,A,5159.90039,N,00422.37361,E,6.364,326.82,071117,,,D*75
$GNVTG,326.82,T,,M,6.364,N,11.787,K,D*14
$GNGGA,142407.00,5159.90039,N,00422.37361,E,2,12,1.06,1.5,M,46.0,M,,0000*48
$GNGSA,A,3,09,23,06,02,07,19,03,22,,,,,1.69,1.06,1.32*15
$GNGSA,A,3,69,84,78,77,85,79,,,,,,,1.69,1.06,1.32*1A
$GPGSV,4,1,13,02,34,305,34,03,26,108,35,06,60,256,36,07,25,169,30*7B
$GPGSV,4,2,13,09,82,210,42,16,04,081,,19,10,232,15,22,07,111,12*7A
$GPGSV,4,3,13,23,61,070,38,26,10,053,08,29,03,350,,30,01,187,*7F
$GPGSV,4,4,13,33,28,205,*46
$GLGSV,3,1,10,67,11,082,,68,61,055,26,69,54,293,32,70,02,272,*65
$GLGSV,3,2,10,77,31,040,12,78,37,102,35,79,14,144,24,83,14,206,17*6E
$GLGSV,3,3,10,84,44,261,26,85,27,327,34*60
$GNGLL,5159.90039,N,00422.37361,E,142407.00,A,D*79
$GNRMC,142408.00,A,5159.90221,N,00422.37302,E,6.909,334.68,071117,,,D*72
$GNVTG,334.68,T,,M,6.909,N,12.795,K,D*12
$GNGGA,142408.00,5159.90221,N,00422.37302,E,2,12,0.90,0.4,M,46.0,M,,0000*47
$GNGSA,A,3,09,23,06,02,07,19,03,22,,,,,1.60,0.90,1.32*12
$GNGSA,A,3,69,84,78,77,85,79,,,,,,,1.60,0.90,1.32*1D
$GPGSV,4,1,13,02,34,305,34,03,26,108,33,06,60,256,36,07,25,169,29*75
$GPGSV,4,2,13,09,82,210,42,16,04,081,,19,10,232,17,22,07,111,11*7B
$GPGSV,4,3,13,23,61,070,38,26,10,053,08,29,03,350,,30,01,187,*7F
$GPGSV,4,4,13,33,28,205,*46
$GLGSV,3,1,10,67,11,082,,68,61,055,27,69,54,293,27,70,02,272,*60
$GLGSV,3,2,10,77,31,040,12,78,37,102,38,79,14,144,29,83,14,206,17*6E
$GLGSV,3,3,10,84,44,261,24,85,27,327,36*60
$GNGLL,5159.90221,N,00422.37302,E,142408.00,A,D*78
$GNRMC,142409.00,A,5159.90409,N,00422.37164,E,7.353,336.30,071117,,,D*76
$GNVTG,336.30,T,,M,7.353,N,13.617,K,D*13
$GNGGA,142409.00,5159.90409,N,00422.37164,E,2,12,0.94,0.2,M,46.0,M,,0000*4A
$GNGSA,A,3,09,23,06,02,07,19,03,22,,,,,1.65,0.94,1.35*14
$GNGSA,A,3,69,84,78,77,85,79,,,,,,,1.65,0.94,1.35*1B
$GPGSV,4,1,13,02,34,305,31,03,26,108,34,06,60,256,36,07,25,169,31*7E
$GPGSV,4,2,13,09,82,210,41,16,04,081,,19,10,232,20,22,07,111,12*7F
$GPGSV,4,3,13,23,61,070,37,26,10,053,08,29,03,350,,30,01,187,*70
$GPGSV,4,4,13,33,28,205,*46
$GLGSV,3,1,10,67,11,082,,68,61,055,29,69,54,293,30,70,02,272,*68
$GLGSV,3,2,10,77,31,040,09,78,37,102,40,79,14,144,26,83,14,206,18*6B
$GLGSV,3,3,10,84,44,261,23,85,27,327,36*67
$GNGLL,5159.90409,N,00422.37164,E,142409.00,A,D*77
$GNRMC,142410.00,A,5159.90602,N,00422.37031,E,7.500,335.88,071117,,,D*76
$GNVTG,335.88,T,,M,7.500,N,13.891,K,D*13
$GNGGA,142410.00,5159.90602,N,00422.37031,E,2,12,0.88,0.0,M,46.0,M,,0000*45
$GNGSA,A,3,09,23,06,02,07,19,03,22,,,,,1.52,0.88,1.23*1A
$GNGSA,A,3,69,84,78,83,85,79,,,,,,,1.52,0.88,1.23*1E
$GPGSV,4,1,13,02,34,305,30,03,26,108,34,06,60,256,36,07,25,169,31*7F
$GPGSV,4,2,13,09,82,210,41,16,04,081,,19,10,232,29,22,07,111,13*77
$GPGSV,4,3,13,23,61,070,37,26,10,053,,29,03,350,,30,01,187,*78
$GPGSV,4,4,13,33,28,205,*46
$GLGSV,3,1,10,67,11,082,,68,61,055,30,69,54,293,30,70,02,272,*60
$GLGSV,3,2,10,77,31,040,10,78,37,102,39,79,14,144,25,83,14,206,21*64
$GLGSV,3,3,10,84,44,261,31,85,27,327,36*64
$GNGLL,5159.90602,N,00422.37031,E,142410.00,A,D*77
$GNRMC,142411.00,A,5159.90803,N,00422.36935,E,7.519,338.43,071117,,,D*76
$GNVTG,338.43,T,,M,7.519,N,13.924,K,D*1E
$GNGGA,142411.00,5159.90803,N,00422.36935,E,2,12,0.88,-0.5,M,46.0,M,,0000*6F
$GNGSA,A,3,09,23,06,02,07,19,03,22,,,,,1.52,0.88,1.23*1A
$GNGSA,A,3,69,84,78,83,85,79,,,,,,,1.52,0.88,1.23*1E
$GPGSV,4,1,13,02,34,305,30,03,26,108,35,06,60,256,36,07,25,169,27*79
$GPGSV,4,2,13,09,82,210,41,16,04,081,,19,10,232,30,22,07,111,12*7E
$GPGSV,4,3,13,23,61,070,37,26,10,053,,29,03,350,,30,01,187,*78
$GPGSV,4,4,13,33,28,205,*46
$GLGSV,3,1,10,67,11,082,,68,61,055,30,69,54,293,31,70,02,272,*61
$GLGSV,3,2,10,77,31,040,08,78,37,102,39,79,14,144,23,83,14,206,20*6A
$GLGSV,3,3,10,84,44,261,31,85,27,327,35*67
$GNGLL,5159.90803,N,00422.36935,E,142411.00,A,D*75
$GNRMC,142412.00,A,5159.90996,N,00422.36810,E,7.374,339.38,071117,,,D*7E
$GNVTG,339.38,T,,M,7.374,N,13.657,K,D*15
$GNGGA,142412.00,5159.90996,N,00422.36810,E,2,12,1.00,-0.8,M,46.0,M,,0000*6B
$GNGSA,A,3,09,23,06,02,07,19,03,,,,,,1.71,1.00,1.39*11
$GNGSA,A,3,69,84,78,83,85,79,,,,,,,1.71,1.00,1.39*15
$GPGSV,4,1,13,02,34,305,22,03,26,108,34,06,60,256,38,07,25,169,29*7B
$GPGSV,4,2,13,09,82,210,41,16,04,081,,19,10,232,31,22,07,111,10*7D
$GPGSV,4,3,13,23,61,070,37,26,10,053,,29,03,350,,30,01,187,*78
$GPGSV,4,4,13,33,28,205,*46
$GLGSV,3,1,10,67,11,082,,68,61,055,31,69,54,293,31,70,02,272,*60
$GLGSV,3,2,10,77,31,040,10,78,37,102,39,79,14,144,21,83,14,206,19*6B
$GLGSV,3,3,10,84,44,261,24,85,27,327,35*63
$GNGLL,5159.90996,N,00422.36810,E,142412.00,A,D*7D
$GNRMC,142413.00,A,5159.91180,N,00422.36698,E,6.993,339.67,071117,,,D*77
$GNVTG,339.67,T,,M,6.993,N,12.951,K,D*15
$GNGGA,142413.00,5159.91180,N,00422.36698,E,2,12,0.93,-1.2,M,46.0,M,,0000*6A
$GNGSA,A,3,09,23,06,02,07,19,03,,,,,,1.68,0.93,1.39*12
$GNGSA,A,3,69,84,78,77,83,85,79,,,,,,1.68,0.93,1.39*16
$GPGSV,4,1,13,02,34,305,23,03,26,108,34,06,60,256,38,07,25,169,28*7B
$GPGSV,4,2,13,09,82,210,41,16,04,081,,19,10,232,30,22,07,111,08*75
$GPGSV,4,3,13,23,61,070,37,26,10,053,,29,03,350,,30,01,187,*78
$GPGSV,4,4,13,33,28,205,*46
$GLGSV,3,1,10,67,11,082,,68,61,055,31,69,54,293,31,70,02,272,*60
$GLGSV,3,2,10,77,31,040,08,78,37,102,39,79,14,144,19,83,14,206,19*69
$GLGSV,3,3,10,84,44,261,24,85,27,327,36*60
$GNGLL,5159.91180,N,00422.36698,E,142413.00,A,D*7C
$GNRMC,142414.00,A,5159.91363,N,00422.36622,E,6.747,339.77,071117,,,D*78
$GNVTG,339.77,T,,M,6.747,N,12.496,K,D*15
$GNGGA,142414.00,5159.91363,N,00422.36622,E,2,12,0.93,-1.7,M,46.0,M,,0000*66
$GNGSA,A,3,09,23,06,02,07,19,03,,,,,,1.68,0.93,1.39*12
$GNGSA,A,3,69,84,78,83,85,79,,,,,,,1.68,0.93,1.39*16
$GPGSV,4,1,13,02,34,305,22,03,26,108,34,06,60,256,36,07,25,169,29*75
$GPGSV,4,2,13,09,82,210,40,16,04,081,,19,10,232,26,22,07,111,07*7C
$GPGSV,4,3,13,23,61,070,34,26,10,053,,29,03,350,,30,01,187,*7B
$GPGSV,4,4,13,33,28,205,*46
$GLGSV,3,1,10,67,11,082,,68,61,055,30,69,54,293,31,70,02,272,*61
$GLGSV,3,2,10,77,31,040,07,78,37,102,41,79,14,144,17,83,14,206,18*66
$GLGSV,3,3,10,84,44,261,24,85,27,327,35*63
$GNGLL,5159.91363,N,00422.36622,E,142414.00,A,D*75
$GNRMC,142415.00,A,5159.91531,N,00422.36521,E,6.356,338.25,071117,,,D*7A
$GNVTG,338.25,T,,M,6.356,N,11.771,K,D*1E
$GNGGA,142415.00,5159.91531,N,00422.36521,E,2,12,0.78,-1.9,M,46.0,M,,0000*6D
$GNGSA,A,3,09,23,06,02,07,19,03,,,,,,1.53,0.78,1.32*14
$GNGSA,A,3,69,84,78,77,83,85,79,,,,,,1.53,0.78,1.32*10
$GPGSV,4,1,13,02,34,305,29,03,26,108,35,06,60,256,36,07,25,169,34*73
$GPGSV,4,2,13,09,82,210,40,16,04,081,,19,10,232,23,22,07,111,07*79
$GPGSV,4,3,13,23,61,070,32,26,10,053,,29,03,350,,30,01,187,*7D
$GPGSV,4,4,13,33,28,205,*46
$GLGSV,3,1,10,67,11,082,,68,61,055,25,69,54,293,30,70,02,272,*64
$GLGSV,3,2,10,77,31,040,10,78,37,102,29,79,14,144,17,83,14,206,15*63
$GLGSV,3,3,10,84,44,261,26,85,27,327,37*63
$GNGLL,5159.91531,N,00422.36521,E,142415.00,A,D*75
$GNRMC,142416.00,A,5159.91678,N,00422.36412,E,5.598,337.18,071117,,,D*70
$GNVTG,337.18,T,,M,5.598,N,10.368,K,D*15
$GNGGA,142416.00,5159.91678,N,00422.36412,E,2,12,0.93,-2.1,M,46.0,M,,0000*6F
$GNGSA,A,3,09,23,06,02,07,19,03,,,,,,1.68,0.93,1.39*12
$GNGSA,A,3,69,84,78,77,83,85,79,,,,,,1.68,0.93,1.39*16
$GPGSV,4,1,13,02,34,305,27,03,26,108,25,06,60,256,32,07,25,169,29*74
$GPGSV,4,2,13,09,82,210,40,16,04,081,,19,10,232,21,22,07,111,07*7B
$GPGSV,4,3,13,23,61,070,32,26,10,053,,29,03,350,,30,01,187,*7D
$GPGSV,4,4,13,33,28,205,*46
$GLGSV,3,1,10,67,11,082,,68,61,055,25,69,54,293,33,70,02,272,*67
$GLGSV,3,2,10,77,31,040,12,78,37,102,20,79,14,144,17,83,14,206,12*6F
$GLGSV,3,3,10,84,44,261,26,85,27,327,37*63
$GNGLL,5159.91678,N,00422.36412,E,142416.00,A,D*79
$GNRMC,142417.00,A,5159.91820,N,00422.36304,E,5.606,336.63,071117,,,D*7B
$GNVTG,336.63,T,,M,5.606,N,10.382,K,D*18
$GNGGA,142417.00,5159.91820,N,00422.36304,E,2,12,0.84,-2.4,M,46.0,M,,0000*6E
$GNGSA,A,3,09,23,06,02,07,19,03,,,,,,1.58,0.84,1.33*1D
$GNGSA,A,3,69,84,78,77,83,85,79,,,,,,1.58,0.84,1.33*19
$GPGSV,4,1,13,02,34,305,35,03,26,108,22,06,60,256,34,07,25,169,31*7F
$GPGSV,4,2,13,09,82,210,41,16,04,081,,19,10,232,18,22,07,111,07*70
$GPGSV,4,3,13,23,61,070,32,26,10,053,,29,03,350,,30,01,187,*7D
